city,state,zip_code,latitude,longitude
Abbeville,LA,70510,29.972971,-92.095051
Aberdeen,MD,21001,39.49498,-76.177507
Aberdeen,NC,28315,35.159693,-79.424516
Aberdeen,SD,57401,45.456105,-98.436532
Aberdeen,WA,98520,46.975337,-123.806587
Abilene,TX,79601,32.473542,-99.738532
Abilene,TX,79601,32.48087,-99.698021
Abilene,TX,79606,32.41097,-99.781732
Abingdon,MD,21009,39.4621,-76.3147
Abingdon,VA,24211,36.714643,-81.927722
Abington,MA,2351,42.096281,-70.968603
Acworth,GA,30101,34.048696,-84.698029
Ada,OK,74820,34.789127,-96.65614
Addison,IL,60101,41.949795,-88.033948
Adel,GA,31620,31.133256,-83.440227
Adrian,MI,49221,41.872722,-84.031302
Ahoskie,NC,27910,36.2650989,-76.968785
Aiken,SC,29801,33.561222,-81.767261
Aiken,SC,29803,33.518173,-81.71954
Akron,OH,44312,40.992609,-81.489153
Alabaster,AL,35007,33.212574,-86.828967
Alabaster,AL,35007,33.2355308,-86.801229
Alameda,NM,87114,35.180495,-106.68984
Alamo,TX,78516,26.191058,-98.131301
Alamogordo,NM,88310,32.887165,-105.957543
Alamogordo,NM,88310,32.916186,-105.930871
Alamosa,CO,81101,37.482281,-105.904108
Albany,GA,31701,31.613341,-84.174185
Albany,GA,31705,31.578974,-84.086699
Albany,GA,31707,31.583836,-84.218466
Albany,GA,31707,31.624849,-84.213742
Albany,NY,12205,42.694877,-73.847121
Albany,OR,97322,44.627025,-123.051328
Albemarle,NC,28001,35.339904,-80.175704
Albert Lea,MN,56007,43.664017,-93.325601
Albion,NY,14411,43.234153,-78.226188
Albuquerque,NM,87108,35.076253,-106.587623
Albuquerque,NM,87110,35.104694,-106.592207
Albuquerque,NM,87110,35.111968,-106.608114
Albuquerque,NM,87111,35.129841,-106.516849
Albuquerque,NM,87111,35.144791,-106.549888
Albuquerque,NM,87112,35.1068343,-106.5485899
Albuquerque,NM,87112,35.109522,-106.517784
Albuquerque,NM,87114,35.204341,-106.656674
Albuquerque,NM,87120,35.103046,-106.727972
Albuquerque,NM,87120,35.110211,-106.700726
Albuquerque,NM,87121,35.02609,-106.710858
Albuquerque,NM,87121,35.054712,-106.739343
Albuquerque,NM,87123,35.079638,-106.52942
Alcoa,TN,37701,35.771244,-83.99179
Aledo,IL,61231,41.197904,-90.731953
Alexander City,AL,35010,32.941317,-85.975832
Alexandria,KY,41001,38.988376,-84.401131
Alexandria,LA,71301,31.270914,-92.487231
Alexandria,LA,71301,31.278583,-92.451864
Alexandria,LA,71303,31.292001,-92.513688
Alexandria,MN,56308,45.84835,-95.382454
Alexandria,VA,22306,38.74376,-77.087484
Alexandria,VA,22306,38.780009,-77.076589
Alexandria,VA,22315,38.76932,-77.136059
Algonquin,IL,60102,42.155217,-88.339729
Algood,TN,38506,36.185896,-85.45941
Alice,TX,78332,27.769731,-98.043504
Allen,TX,75002,33.113843,-96.629614
Allen,TX,75013,33.119662,-96.672346
Allentown,PA,18106,40.553855,-75.578777
Alliance,OH,44601,40.900025,-81.160834
Alma,AR,72921,35.479083,-94.22879
Alma,MI,48801,43.4034976,-84.6641673
Alpena,MI,49707,45.064045,-83.476707
Alpharetta,GA,30004,34.093816,-84.274352
Alpharetta,GA,30004,34.150322,-84.24936
Altamonte Springs,FL,32714,28.659911,-81.421139
Altavista,VA,24517,37.143352,-79.269885
Altoona,IA,50009,41.647019,-93.504868
Altoona,PA,16601,40.455457,-78.405524
Altus,OK,73521,34.664235,-99.331291
Alva,OK,73717,36.79952,-98.645026
Alvin,TX,77511,29.421683,-95.230798
Amarillo,TX,79103,35.18974,-101.793388
Amarillo,TX,79106,35.2123619,-101.9077642
Amarillo,TX,79109,35.130745,-101.919062
Amarillo,TX,79110,35.148251,-101.866919
Amarillo,TX,79110,35.170127,-101.862826
Amarillo,TX,79118,35.1796193,-101.8153801
Amarillo,TX,79119,35.159637,-101.923511
Amelia,OH,45102,39.015221,-84.19885
American Canyon,CA,94503,38.182987,-122.252632
American Fork,UT,84003,40.384789,-111.825124
Americus,GA,31709,32.060471,-84.202197
Ames,IA,50010,42.016177,-93.606956
Ames,IA,50010,42.052095,-93.62269
Amherst,NH,3031,42.809386,-71.579488
Amherst,NY,14226,42.982385,-78.811839
Amite,LA,70422,30.729012,-90.529634
Ammon,ID,83406,43.486775,-111.980728
Amory,MS,38821,33.968526,-88.457017
Amsterdam,NY,12010,42.964506,-74.183699
Anadarko,OK,73005,35.060053,-98.262377
Anaheim,CA,92801,33.833236,-117.995057
Anaheim,CA,92801,33.8363,-117.938
Anaheim,CA,92801,33.857602,-117.918796
Anaheim,CA,92805,33.819473,-117.908042
Anamosa,IA,52205,42.099218,-91.264296
Anchorage,AK,99503,61.192213,-149.879549
Anchorage,AK,99504,61.211988,-149.743184
Anchorage,AK,99515,61.140195,-149.869863
Andalusia,AL,36420,31.32176,-86.444966
Anderson,CA,96007,40.431344,-122.289703
Anderson,IN,46013,40.0644809,-85.6496235
Anderson,SC,29621,34.54509,-82.632837
Anderson,SC,29621,34.554437,-82.6786822
Anderson,SC,29624,34.487945,-82.678139
Andover,MN,55304,45.221466,-93.31249
Angleton,TX,77515,29.184128,-95.435889
Angola,IN,46703,41.661572,-84.995594
Ankeny,IA,50021,41.70526,-93.585035
Anna,IL,62906,37.461908,-89.222998
Anna,TX,75409,33.347947,-96.582282
Anniston,AL,36206,33.720093,-85.820134
Antelope,CA,95843,38.712775,-121.394667
Anthem,AZ,85086,33.869614,-112.154941
Antigo,WI,54409,45.163307,-89.142687
Antioch,CA,94531,37.96348,-121.761615
Antioch,IL,60002,42.46902,-88.064689
Antioch,TN,37013,36.060947,-86.629219
Apache Junction,AZ,85120,33.413821,-111.5753437
Apex,NC,27502,35.714892,-78.842835
Apopka,FL,32703,28.6495856,-81.4692986
Apple Valley,CA,92307,34.525592,-117.223224
Apple Valley,MN,55124,44.734376,-93.224698
Appleton,WI,54913,44.269065,-88.480079
Appleton,WI,54915,44.241019,-88.351479
Appomattox,VA,24522,37.36605,-78.841193
Arab,AL,35016,34.341887,-86.500136
Aransas Pass,TX,78336,27.92242,-97.176221
Arbutus,MD,21227,39.248504,-76.66744
Arcadia,FL,34266,27.206591,-81.829165
Archdale,NC,27263,35.898133,-79.946037
Arden,NC,28704,35.456323,-82.523452
Ardmore,OK,73401,34.193239,-97.145321
Arkadelphia,AR,71923,34.119797,-93.096488
Arkansas City,KS,67005,37.089881,-97.043155
Arlington,TX,76011,32.750915,-97.095455
Arlington,TX,76011,32.768129,-97.095414
Arlington,TX,76017,32.645794,-97.1176
Arlington,TX,76017,32.659469,-97.165234
Arlington,TX,76017,32.666757,-97.209309
Arlington,TX,76017,32.66855,-97.131791
Arlington,WA,98223,48.150446,-122.17533
Arnold,MO,63010,38.436729,-90.377786
Arroyo Grande,CA,93420,35.1289517,-120.5977084
Artesia,NM,88210,32.847687,-104.426641
Arvada,CO,80002,39.800682,-105.103991
Ash Flat,AR,72513,36.241189,-91.596294
Ashdown,AR,71822,33.657167,-94.10924
Asheboro,NC,27203,35.692223,-79.789581
Asheville,NC,28803,35.513384,-82.523683
Asheville,NC,28805,35.577077,-82.516228
Ashland,KY,41101,38.485575,-82.658168
Ashland,KY,41102,38.388444,-82.7113
Ashland,OH,44805,40.862191,-82.271284
Ashland,VA,23005,37.693228,-77.439732
Ashland,VA,23005,37.755204,-77.459698
Ashland,WI,54806,46.603347,-90.850498
Ashland City,TN,37015,36.247874,-87.032526
Ashtabula,OH,44004,41.883457,-80.749532
Atchison,KS,66002,39.540389,-95.129139
Athens,AL,35611,34.78855,-86.958843
Athens,GA,30605,33.934232,-83.30886
Athens,GA,30606,33.919842,-83.445494
Athens,GA,30606,33.943652,-83.444484
Athens,OH,45701,39.3355905,-82.0670162
Athens,TN,37303,35.4528545,-84.6315904
Athens,TX,75751,32.210394,-95.832943
Atlanta,GA,30314,33.755828,-84.413627
Atlanta,GA,30316,33.719115,-84.312878
Atlanta,GA,30318,33.803041,-84.411781
Atlanta,GA,30331,33.72837,-84.507908
Atlanta,GA,30354,33.6562283,-84.4240045
Atlanta,TX,75551,33.115504,-94.184857
Atlantic,IA,50022,41.401589,-94.98601
Atmore,AL,36502,31.0379679,-87.4951729
Atoka,OK,74525,34.3662191,-96.1426364
Attalla,AL,35954,33.993612,-86.093629
Atwater,CA,95301,37.340296,-120.609275
Auburn,AL,36830,32.624746,-85.450252
Auburn,AL,36832,32.570858,-85.49657
Auburn,AL,36832,32.630388,-85.495491
Auburn,IN,46706,41.362476,-85.080495
Auburn,ME,4210,44.11765,-70.238202
Auburn,NY,13021,42.9540567,-76.5481535
Auburn,WA,98001,47.301493,-122.240883
Auburndale,FL,33823,28.060008,-81.816058
Audubon,NJ,8106,39.8920839,-75.084103
Augusta,GA,30906,33.424433,-82.062901
Augusta,GA,30907,33.493626,-82.135999
Augusta,GA,30907,33.504905,-82.086122
Augusta,GA,30909,33.466742,-82.070236
Augusta,KS,67010,37.677977,-96.987658
Augusta,ME,4330,44.343123,-69.789861
Aurora,CO,80010,39.739322,-104.867555
Aurora,CO,80011,39.761672,-104.774366
Aurora,CO,80012,39.701967,-104.826211
Aurora,CO,80014,39.673462,-104.811188
Aurora,CO,80015,39.6139062,-104.8114187
Aurora,CO,80015,39.640148,-104.737674
Aurora,CO,80016,39.606306,-104.704719
Aurora,IL,60502,41.81566,-88.283176
Aurora,IN,47001,39.079977,-84.888781
Aurora,MO,65605,36.946462,-93.714993
Aurora,OH,44202,41.350167,-81.389802
Austell,GA,30106,33.85557,-84.58697
Austin,MN,55912,43.6878184,-92.9872555
Austin,TX,78704,30.221033,-97.753926
Austin,TX,78717,30.46707,-97.78924
Austin,TX,78735,30.2322111,-97.8232981
Austin,TX,78748,30.165078,-97.790515
Austin,TX,78753,30.339335,-97.689745
Austin,TX,78753,30.41371,-97.676453
Austin,TX,78757,30.355509,-97.734896
Austintown,OH,44515,41.097454,-80.774023
Ava,MO,65608,36.959408,-92.676527
Avon,CO,81620,39.628054,-106.500249
Avon,CT,6001,41.810565,-72.853767
Avon,IN,46123,39.766292,-86.35472
Avon,MA,2322,42.121102,-71.030085
Avon,OH,44011,41.466259,-82.015964
Avon Park,FL,33825,27.608819,-81.517586
Avondale,AZ,85392,33.459141,-112.3381
Azle,TX,76020,32.904316,-97.546277
Bad Axe,MI,48413,43.817639,-83.005695
Bainbridge,GA,39819,30.889931,-84.571098
Baker,LA,70714,30.580162,-91.131267
Bakersfield,CA,93306,35.391531,-118.960829
Bakersfield,CA,93307,35.298796,-119.029215
Bakersfield,CA,93307,35.353387,-118.947601
Bakersfield,CA,93308,35.434523,-119.022288
Bakersfield,CA,93312,35.370037,-119.147611
Bakersfield,CA,93312,35.386354,-119.095662
Bakersfield,CA,93312,35.411874,-119.112528
Bakersfield,CA,93313,35.308793,-119.095393
Balch Springs,TX,75180,32.731829,-96.615424
Baldwin Park,CA,91706,34.071943,-117.963494
Ballinger,TX,76821,31.720395,-99.960701
Baltimore,MD,21220,39.336616,-76.400912
Baltimore,MD,21237,39.3373245,-76.4878526
Bangor,ME,4401,44.839916,-68.749406
Baraboo,WI,53913,43.458483,-89.772509
Barboursville,WV,25504,38.421895,-82.256481
Barbourville,KY,40906,36.85829,-83.868434
Barceloneta,PR,617,18.437548,-66.543888
Bardstown,KY,40004,37.799907,-85.436761
Barnwell,SC,29812,33.238248,-81.392282
Barstow,CA,92311,34.882594,-116.991694
Bartlesville,OK,74006,36.740695,-95.931584
Bartlett,TN,38133,35.207083,-89.782679
Bartlett,TN,38135,35.227897,-89.847127
Bartow,FL,33830,27.9070533,-81.8334249
Bastrop,LA,71220,32.775799,-91.870221
Bastrop,TX,78602,30.103372,-97.332537
Batavia,IL,60510,41.8636679,-88.345774
Batavia,NY,14020,43.013638,-78.207967
Batesville,AR,72501,35.762696,-91.614278
Batesville,MS,38606,34.307673,-89.916401
Baton Rouge,LA,70808,30.395741,-91.160018
Baton Rouge,LA,70808,30.4207569,-91.1429412
Baton Rouge,LA,70809,30.37753,-91.06156
Baton Rouge,LA,70810,30.3519322,-91.1098629
Baton Rouge,LA,70815,30.462569,-91.090899
Baton Rouge,LA,70816,30.4098482,-91.0543414
Baton Rouge,LA,70816,30.431024,-91.077884
Baton Rouge,LA,70816,30.43774,-91.004692
Baton Rouge,LA,70817,30.409498,-91.020659
Baton Rouge,LA,70818,30.541743,-91.025189
Baton Rouge,LA,70818,30.547722,-91.055864
Battle Creek,MI,49014,42.257811,-85.177153
Battle Ground,WA,98604,45.772387,-122.549467
Baxley,GA,31513,31.786216,-82.364662
Baxter,MN,56425,46.341881,-94.249555
Bay City,MI,48706,43.625476,-83.897044
Bay City,TX,77414,28.98382,-95.934448
Bay Minette,AL,36507,30.886011,-87.790076
Bayamon,PR,961,18.406899,-66.164946
Bayonne,NJ,7002,40.659918,-74.106726
Baytown,TX,77521,29.7763429,-94.9743933
Baytown,TX,77523,29.8171691,-94.8968336
Beardstown,IL,62618,39.996788,-90.394505
Beatrice,NE,68310,40.303688,-96.744313
Beaufort,SC,29906,32.425554,-80.734093
Beaufort,SC,29907,32.407536,-80.632965
Beaumont,CA,92223,33.925116,-116.9516584
Beaumont,TX,77706,30.12284,-94.16742
Beaver Dam,KY,42320,37.429567,-86.880124
Beaver Dam,WI,53916,43.489327,-88.811465
Beaver Falls,PA,15010,40.782333,-80.383772
Beavercreek,OH,45431,39.772625,-84.055165
Beaverton,OR,97006,45.535437,-122.852691
Beaverton,OR,97008,45.454914,-122.828569
Bechtelsville,PA,19505,40.351079,-75.630465
Beckley,WV,25801,37.754389,-81.222354
Beckley,WV,25801,37.805608,-81.17671
Bedford,IN,47421,38.865459,-86.514975
Bedford,NH,3110,42.96419,-71.485444
Bedford,TX,76021,32.843458,-97.132125
Bedford,TX,76021,32.864121,-97.106123
Bedford,VA,24523,37.325966,-79.49697
Bedford Park,IL,60638,41.765639,-87.745478
Beebe,AR,72012,35.06565,-91.905412
Beeville,TX,78102,28.422051,-97.753283
Belen,NM,87002,34.6971752,-106.7683411
Belle Vernon,PA,15012,40.138708,-79.84555
Bellefontaine,OH,43311,40.3283014,-83.7569547
Belleville,IL,62221,38.522079,-89.922955
Belleville,MI,48111,42.225518,-83.488377
Bellevue,NE,68123,41.116275,-95.942778
Bellevue,NE,68123,41.155655,-95.936667
Bellevue,WA,98006,47.572888,-122.172531
Bellevue,WA,98007,47.608956,-122.139482
Bellingham,MA,2019,42.116233,-71.465242
Bellingham,WA,98226,48.801663,-122.482164
Bellmead,TX,76705,31.5999747,-97.1055235
Belmont,NC,28012,35.255416,-81.035471
Beloit,WI,53511,42.526467,-88.986166
Belton,TX,76513,31.081946,-97.460819
Belvidere,IL,61008,42.238256,-88.817278
Bemidji,MN,56601,47.4966,-94.908205
Benbrook,TX,76126,32.678149,-97.468169
Bend,OR,97702,44.023733,-121.317387
Bennettsville,SC,29512,34.638867,-79.704246
Bennington,VT,5201,42.897885,-73.210877
Bensalem,PA,19053,40.136561,-74.967566
Benson,AZ,85602,31.968821,-110.314252
Benton,AR,72015,34.577533,-92.580065
Benton,IL,62812,38.000853,-88.93678
Benton,KY,42025,36.869615,-88.360427
Benton Harbor,MI,49022,42.077237,-86.425321
Bentonville,AR,72712,36.3342,-94.197125
Bentonville,AR,72712,36.337252,-94.223909
Bentonville,AR,72712,36.354297,-94.171075
Bentonville,AR,72712,36.357486,-94.214669
Bentonville,AR,72712,36.365465,-94.217632
Bentonville,AR,72712,36.368151,-94.224959
Bentonville,AR,72712,36.372286,-94.189049
Bentonville,AR,72712,36.373539,-94.209408
Bentonville,AR,72712,36.389152,-94.219316
Berea,KY,40403,37.565357,-84.312562
Berlin,MD,21811,38.339359,-75.162617
Berlin,VT,5602,44.2161046,-72.5656662
Berlin,WI,54923,43.970627,-88.978984
Bernalillo,NM,87004,35.3200531,-106.5719999
Berryville,AR,72616,36.376273,-93.5870153
Bessemer,AL,35022,33.361719,-87.001921
Bethany,MO,64424,40.262181,-94.017129
Bethel Park,PA,15102,40.33898,-80.023429
Bethlehem,PA,18020,40.672452,-75.342024
Biddeford,ME,4005,43.4743792,-70.4995399
Big Rapids,MI,49307,43.69059,-85.509212
Big Spring,TX,79720,32.227804,-101.467786
Big Stone Gap,VA,24219,36.860033,-82.7574731
Billings,MT,59102,45.758042,-108.57945
Billings,MT,59105,45.82902,-108.467332
Biloxi,MS,39531,30.392334,-88.995008
Biloxi,MS,39531,30.403829,-88.958552
Biloxi,MS,39532,30.443181,-88.945247
Birmingham,AL,35206,33.590204,-86.70022
Birmingham,AL,35209,33.46784,-86.821602
Birmingham,AL,35210,33.528969,-86.720194
Birmingham,AL,35214,33.579201,-86.9243089
Birmingham,AL,35215,33.637368,-86.684495
Birmingham,AL,35235,33.638953,-86.629165
Birmingham,AL,35242,33.421996,-86.67595
Birmingham,AL,35244,33.382356,-86.739176
Biscoe,NC,27209,35.357235,-79.797888
Bismarck,ND,58503,46.857733,-100.768147
Bismarck,ND,58504,46.791635,-100.749948
Black River Falls,WI,54615,44.291594,-90.834535
Blackfoot,ID,83221,43.198681,-112.359444
Blackstone,VA,23824,37.060797,-78.004293
Blackwell,OK,74631,36.810171,-97.297401
Blaine,MN,55014,45.1599696,-93.1597977
Blaine,MN,55434,45.1797455,-93.2390135
Blair,NE,68008,41.526046,-96.140832
Blairsville,GA,30512,34.863923,-83.998011
Blairsville,PA,15717,40.442519,-79.226641
Bloomingdale,IL,60108,41.936421,-88.102649
Bloomington,IL,61705,40.4897474,-89.0415186
Bloomington,IN,47403,39.141343,-86.579988
Bloomington,MN,55420,44.860771,-93.265676
Bloomsburg,PA,17815,41.008702,-76.485292
Blue Ridge,GA,30513,34.877099,-84.325777
Blue Springs,MO,64014,39.024151,-94.25503
Blue Springs,MO,64014,39.037642,-94.2697
Bluefield,VA,24605,37.237732,-81.25417
Bluffton,IN,46714,40.772792,-85.168326
Bluffton,SC,29910,32.259965,-80.854194
Blytheville,AR,72315,35.931083,-89.872175
Boaz,AL,35957,34.214766,-86.153387
Boca Raton,FL,33428,26.348262,-80.200616
Boerne,TX,78006,29.778912,-98.724391
Bogalusa,LA,70427,30.793589,-89.865094
Boiling Springs,SC,29316,35.0525795,-81.9856878
Boise,ID,83704,43.6343486,-116.2760806
Boise,ID,83709,43.592826,-116.284808
Boise,ID,83714,43.66992,-116.283599
Bolingbrook,IL,60440,41.695929,-88.06511
Bolivar,MO,65613,37.591722,-93.403975
Bolivar,TN,38008,35.279842,-89.024623
Bonham,TX,75418,33.596586,-96.194575
Bonner Springs,KS,66012,39.085862,-94.877566
Bonney Lake,WA,98391,47.167646,-122.171764
Boone,IA,50036,42.036646,-93.870081
Boone,NC,28607,36.197033,-81.66002
Booneville,AR,72927,35.1433678,-93.9018368
Booneville,MS,38829,34.677408,-88.56422
Boonton,NJ,7005,40.9070884,-74.4040426
Boonville,IN,47601,38.050712,-87.307191
Boonville,MO,65233,38.951369,-92.739689
Boothwyn,PA,19061,39.852029,-75.448983
Borger,TX,79007,35.654823,-101.411718
Bossier City,LA,71111,32.548268,-93.706324
Bossier City,LA,71111,32.55969,-93.648246
Bossier City,LA,71112,32.479497,-93.679174
Bottineau,ND,58318,48.8185472,-100.4324835
Bourbonnais,IL,60914,41.190112,-87.846595
Boutte,LA,70039,29.904678,-90.372369
Bowie,MD,20716,38.935591,-76.720454
Bowie,TX,76230,33.540549,-97.837408
Bowling Green,KY,42101,36.986766,-86.484034
Bowling Green,KY,42104,36.948807,-86.433446
Bowling Green,MO,63334,39.330546,-91.181652
Bowling Green,OH,43402,41.354048,-83.652427
Boynton Beach,FL,33435,26.492794,-80.063877
Boynton Beach,FL,33436,26.489084,-80.121275
Boynton Beach,FL,33436,26.529016,-80.095769
Boynton Beach,FL,33436,26.529275,-80.1202028
Bozeman,MT,59715,45.694689,-111.042147
Braden River,FL,34203,27.449683,-82.527182
Bradenton,FL,34202,27.436805,-82.457053
Bradenton,FL,34203,27.444798,-82.503907
Bradenton,FL,34208,27.495888,-82.482406
Bradenton,FL,34210,27.460293,-82.615299
Bradford,PA,16701,41.978433,-78.608937
Brady,TX,76825,31.10974,-99.33078
Brandon,FL,33511,27.925393,-82.325385
Brandon,FL,33511,27.925454,-82.270175
Brandon,FL,33511,27.940627,-82.265018
Branford,CT,6405,41.281365,-72.830821
Branson,MO,65616,36.639045,-93.259769
Branson,MO,65616,36.670219,-93.229928
Branson West,MO,65737,36.699744,-93.372305
Brawley,CA,92227,32.962431,-115.545833
Brazil,IN,47834,39.531649,-87.10094
Brea,CA,92821,33.9135102,-117.8653504
Breaux Bridge,LA,70517,30.293263,-91.910347
Breckenridge,TX,76424,32.761895,-98.946751
Bremen,GA,30110,33.70787,-85.163517
Bremerton,WA,98311,47.624868,-122.632771
Brenham,TX,77833,30.139992,-96.393143
Brent,AL,35034,32.963956,-87.171887
Brewer,ME,4412,44.774335,-68.732304
Brewton,AL,36426,31.148441,-87.063735
Brick,NJ,8724,40.072671,-74.124801
Bridge City,TX,77611,30.024796,-93.844527
Bridgeton,MO,63044,38.744895,-90.418728
Bridgeton,NJ,8302,39.466738,-75.208917
Bridgeview,IL,60455,41.706569,-87.800466
Brighton,CO,80601,39.969622,-104.82389
Brighton,CO,80602,39.931149,-104.905963
Bristol,CT,6010,41.697557,-72.897663
Bristol,TN,37620,36.545412,-82.235082
Bristol,VA,24202,36.634933,-82.124334
Bristow,OK,74010,35.844007,-96.394808
Brockport,NY,14420,43.196977,-77.927723
Brockton,MA,2301,42.0980861,-71.0567099
Broken Arrow,OK,74011,35.991653,-95.800655
Broken Arrow,OK,74012,36.033353,-95.799143
Broken Arrow,OK,74012,36.0451176,-95.8491329
Broken Arrow,OK,74012,36.058129,-95.817643
Broken Arrow,OK,74012,36.076136,-95.775883
Broken Arrow,OK,74014,36.0667429,-95.7428452
Broken Bow,OK,74728,34.0223133,-94.7379574
Brookfield,MO,64628,39.767807,-93.072718
Brookhaven,MS,39601,31.582156,-90.468421
Brookings,SD,57006,44.314414,-96.765997
Brooklyn,CT,6234,41.799019,-71.913375
Brooklyn Center,MN,55430,45.0563683,-93.3162617
Brooklyn Park,MN,55445,45.100635,-93.385189
Brooksville,FL,34601,28.537096,-82.407398
Brooksville,FL,34613,28.531095,-82.505657
Broomfield,CO,80020,39.91673,-105.046458
Broomfield,CO,80021,39.9259055,-105.1362376
Broussard,LA,70518,30.144151,-91.943449
Brown Deer,WI,53223,43.179211,-87.988185
Brownsburg,IN,46112,39.859194,-86.39654
Brownsville,TN,38012,35.5867,-89.238093
Brownsville,TX,78520,25.975195,-97.520341
Brownsville,TX,78521,25.925047,-97.47699
Brownsville,TX,78526,25.9524,-97.480925
Brownwood,TX,76801,31.731877,-98.981832
Brunswick,GA,31520,31.193456,-81.487474
Brunswick,GA,31525,31.212801,-81.485464
Brunswick,ME,4011,43.907103,-69.90761
Bryan,OH,43506,41.459818,-84.546879
Bryan,TX,77802,30.6574,-96.330396
Bryan,TX,77807,30.6319927,-96.3819255
Bryant,AR,72022,34.624206,-92.494451
Buckeye,AZ,85326,33.436922,-112.560303
Buckhannon,WV,26201,38.998038,-80.234958
Bucyrus,OH,44820,40.810114,-82.946237
Buda,TX,78610,30.086635,-97.825017
Buena Park,CA,90620,33.84467,-117.986649
Buffalo,MN,55313,45.189871,-93.878478
Buffalo,MO,65622,37.6390437,-93.1061393
Buford,GA,30519,34.078384,-83.921922
Buford,GA,30519,34.08896,-83.989918
Bullhead City,AZ,86442,35.082534,-114.5943
Burbank,CA,91502,34.188222,-118.32521
Burke,VA,22015,38.789177,-77.299815
Burleson,TX,76028,32.527749,-97.337823
Burleson,TX,76028,32.5377974,-97.3613042
Burley,ID,83318,42.56033,-113.789812
Burlington,NC,27215,36.07209,-79.499
Burlington,NC,27217,36.091156,-79.403377
Burlington,NJ,8016,40.047499,-74.8427
Burlington,WI,53105,42.703441,-88.254122
Burnsville,MN,55337,44.781099,-93.286082
Burton,MI,48509,43.022948,-83.600861
Bushnell,FL,33513,28.66579,-82.139288
Butler,MO,64730,38.254537,-94.356466
Butler,PA,16001,40.878144,-79.943131
Butte,MT,59701,45.963776,-112.510563
Byram,MS,39272,32.185505,-90.264498
Cabot,AR,72023,34.9533761,-92.0069825
Cabot,AR,72023,34.976507,-92.040706
Cadillac,MI,49601,44.284128,-85.3986136
Caguas,PR,725,18.246813,-66.015936
Cahokia,IL,62206,38.556061,-90.166315
Cairo,GA,39828,30.8870711,-84.2035475
Calais,ME,4619,45.174965,-67.2791215
Caldwell,ID,83605,43.632192,-116.690869
Caldwell,ID,83607,43.631125,-116.646208
Caldwell,TX,77836,30.539125,-96.700254
Calera,AL,35040,33.146252,-86.751885
Calexico,CA,92231,32.697644,-115.496576
Calhoun,GA,30701,34.479327,-84.945512
California,MD,20619,38.292897,-76.503334
Callaway,FL,32404,30.161539,-85.593254
Camarillo,CA,93010,34.217292,-119.074618
Cambridge,MD,21613,38.553228,-76.052755
Cambridge,MN,55008,45.570271,-93.197832
Cambridge,OH,43725,39.989348,-81.576671
Camby,IN,46113,39.642195,-86.328093
Camden,AR,71701,33.567239,-92.836856
Camden,DE,19934,39.102742,-75.546151
Camden,SC,29020,34.250827,-80.649858
Camden,TN,38320,36.088711,-88.108643
Camdenton,MO,65020,38.025748,-92.722992
Cameron,MO,64429,39.758116,-94.231503
Cameron,NC,28326,35.244075,-79.026176
Camilla,GA,31730,31.23577,-84.198478
Camillus,NY,13031,43.037822,-76.272331
Camp Hill,PA,17011,40.224885,-76.928412
Campbellsville,KY,42718,37.345868,-85.373597
Canal Winchester,OH,43110,39.852214,-82.824082
Canandaigua,NY,14424,42.876081,-77.23991
Canon City,CO,81212,38.448662,-105.191452
Canovanas,PR,729,18.380312,-65.889788
Canton,GA,30114,34.255416,-84.461178
Canton,IL,61520,40.592292,-90.033266
Canton,MI,48187,42.325448,-83.43034
Canton,MI,48188,42.268866,-83.488859
Canton,MS,39046,32.595986,-90.073021
Canton,OH,44705,40.8339887,-81.3291634
Canton,OH,44708,40.7940473,-81.4220487
Canton,TX,75103,32.543138,-95.854291
Canyon,TX,79015,34.998002,-101.922569
Cape Coral,FL,33909,26.671878,-81.928813
Cape Coral,FL,33914,26.578921,-81.991899
Cape Coral,FL,33990,26.62088,-81.937051
Cape Coral,FL,33991,26.649591,-81.984658
Cape Girardeau,MO,63701,37.30124,-89.585833
Cape Girardeau,MO,63701,37.305132,-89.549208
Carbondale,IL,62901,37.738565,-89.186886
Carencro,LA,70520,30.3192,-92.0305
Carlinville,IL,62626,39.267994,-89.894417
Carlisle,PA,17013,40.189328,-77.194327
Carlsbad,NM,88220,32.393959,-104.222987
Carlyle,IL,62231,38.629436,-89.376727
Carmel,IN,46033,40.006534,-86.123747
Carmi,IL,62821,38.073728,-88.190385
Carmichael,CA,95608,38.6625991,-121.3249003
Carnegie,PA,15106,40.38679,-80.096233
Caro,MI,48723,43.500863,-83.384718
Carolina,PR,987,18.3938234,-65.9970306
Carpentersville,IL,60110,42.119505,-88.261654
Carrizo Springs,TX,78834,28.542786,-99.848551
Carroll,IA,51401,42.081336,-94.893106
Carrollton,GA,30117,33.5432197,-85.0772931
Carrollton,KY,41008,38.658921,-85.128316
Carrollton,TX,75006,32.982646,-96.910225
Carrollton,TX,75006,32.985871,-96.905861
Carrollton,TX,75007,33.018007,-96.916108
Carson,CA,90746,33.8483863,-118.2634793
Carson City,NV,89705,39.111782,-119.778406
Carson City,NV,89706,39.18721,-119.757584
Cartersville,GA,30121,34.202913,-84.787531
Carthage,MO,64836,37.141958,-94.313292
Carthage,MS,39051,32.7258051,-89.5474174
Carthage,TN,37030,36.245588,-85.939041
Carthage,TX,75633,32.168984,-94.368699
Cary,NC,27513,35.801756,-78.785436
Cary,NC,27518,35.73682,-78.782797
Cary,NC,27519,35.786413,-78.869442
Casa Grande,AZ,85122,32.877207,-111.712266
Casper,WY,82604,42.816882,-106.374748
Casper,WY,82609,42.851375,-106.266907
Casselberry,FL,32707,28.635005,-81.323329
Cassville,MO,65625,36.677044,-93.88977
Castroville,TX,78009,29.357791,-98.858328
Catonsville,MD,21228,39.2817202,-76.7511923
Catoosa,OK,74015,36.165325,-95.75607
Catskill,NY,12414,42.212559,-73.882972
Cave Creek,AZ,85331,33.796641,-111.962216
Cayce,SC,29033,33.977727,-81.073119
Cayey,PR,736,18.122469,-66.133854
Cedar City,UT,84720,37.65447,-113.088367
Cedar Falls,IA,50613,42.486885,-92.440012
Cedar Hill,TX,75104,32.5882987,-96.9245811
Cedar Hill,TX,75104,32.597465,-96.94703
Cedar Hills,UT,84062,40.416575,-111.770375
Cedar Knolls,NJ,7927,40.809705,-74.457207
Cedar Park,TX,78613,30.522555,-97.83446
Cedar Park,TX,78613,30.535617,-97.786657
Cedar Rapids,IA,52402,42.031916,-91.682032
Cedar Rapids,IA,52404,41.946689,-91.718565
Cedartown,GA,30125,34.0463802,-85.239825
Celina,OH,45822,40.554332,-84.540457
Centennial,CO,80015,39.625265,-104.794046
Centennial,CO,80112,39.590559,-104.861788
Center,TX,75935,31.80172,-94.194186
Centereach,NY,11720,40.863036,-73.0812114
Centerton,AR,72712,36.358876,-94.253016
Centerville,IA,52544,40.7091841,-92.8656721
Centerville,UT,84014,40.919007,-111.883825
Central,SC,29630,34.705681,-82.762319
Central City,KY,42330,37.271457,-87.144458
Central Square,NY,13036,43.29137,-76.127475
Centralia,IL,62801,38.534926,-89.159199
Centre,AL,35960,34.162885,-85.712618
Ceres,CA,95307,37.606766,-120.93739
Cerritos,CA,90703,33.872491,-118.061727
Chadron,NE,69337,42.8270741,-103.0221246
Chalmette,LA,70043,29.9590023,-89.9839444
Chambersburg,PA,17202,39.920766,-77.60692
Chamblee,GA,30341,33.888542,-84.311428
Champaign,IL,61822,40.147006,-88.25482
Chandler,AZ,85225,33.30784,-111.808474
Chandler,AZ,85225,33.337731,-111.854681
Chandler,AZ,85226,33.303752,-111.947348
Chandler,AZ,85226,33.3078755,-111.9016321
Chandler,AZ,85286,33.281575,-111.793378
Chandler,AZ,85286,33.289278,-111.838011
Chandler,OK,74834,35.711749,-96.842036
Chantilly,VA,20151,38.889104,-77.443029
Chanute,KS,66720,37.65365,-95.450998
Chapel Hill,NC,27517,35.8586129,-79.0815583
Chardon,OH,44024,41.586203,-81.226511
Charles Town,WV,25414,39.300311,-77.827361
Charleston,IL,61920,39.485111,-88.155374
Charleston,SC,29412,32.7205295,-79.9677342
Charleston,SC,29414,32.821602,-80.08135
Charlotte,MI,48813,42.580217,-84.803637
Charlotte,NC,28205,35.1994206,-80.7765497
Charlotte,NC,28208,35.226419,-80.894602
Charlotte,NC,28216,35.329535,-80.945755
Charlotte,NC,28226,35.090526,-80.859276
Charlotte,NC,28226,35.096683,-80.782272
Charlotte,NC,28227,35.2007199,-80.727333
Charlotte,NC,28227,35.213517,-80.688996
Charlotte,NC,28262,35.295375,-80.758266
Charlotte,NC,28262,35.334147,-80.712497
Charlotte,NC,28270,35.138917,-80.731964
Charlotte,NC,28273,35.14655,-80.934023
Charlottesville,VA,22901,38.09739,-78.467131
Chattanooga,TN,37405,35.094449,-85.331891
Chattanooga,TN,37411,35.008324,-85.205136
Chattanooga,TN,37411,35.042646,-85.220059
Chattanooga,TN,37415,35.115368,-85.262699
Chattanooga,TN,37419,35.015665,-85.376526
Chattanooga,TN,37421,35.005441,-85.149166
Chattanooga,TN,37421,35.03,-85.1531
Cheboygan,MI,49721,45.62615,-84.482416
Checotah,OK,74426,35.470025,-95.534337
Cheektowaga,NY,14225,42.910469,-78.743309
Chehalis,WA,98532,46.678925,-122.979138
Chelan,WA,98816,47.842459,-119.987509
Chelmsford,MA,1824,42.6228533,-71.360693
Chelsea,AL,35043,33.347786,-86.619238
Cheraw,SC,29520,34.701157,-79.931271
Cherry Hill,NJ,8002,39.938592,-75.044627
Cherryville,NC,28021,35.401024,-81.34047
Chesapeake,VA,23320,36.743929,-76.22563
Chesapeake,VA,23320,36.772868,-76.248764
Chesapeake,VA,23321,36.829961,-76.418107
Chesapeake,VA,23322,36.653773,-76.23355
Chesapeake,VA,23322,36.7094822,-76.2636869
Chesapeake,VA,23322,36.721028,-76.309264
Chester,IL,62233,37.925334,-89.804487
Chester,SC,29706,34.699825,-81.1925399
Chester,VA,23831,37.350273,-77.482847
Chesterfield,MI,48051,42.634814,-82.85275
Chesterfield,MO,63005,38.665861,-90.591551
Chesterfield,VA,23832,37.400835,-77.673146
Cheyenne,WY,82007,41.1262776,-104.7619112
Cheyenne,WY,82009,41.164049,-104.791051
Chicago,IL,60608,41.8505531,-87.6899892
Chicago,IL,60620,41.7402659,-87.632945
Chicago,IL,60620,41.7563217,-87.6628973
Chicago,IL,60628,41.696631,-87.599021
Chicago,IL,60639,41.911684,-87.742835
Chicago,IL,60639,41.9347406,-87.7429913
Chicago,IL,60653,41.808846,-87.606801
Chicago,IL,60657,41.934104,-87.644651
Chickasha,OK,73018,35.031027,-97.931081
Chico,CA,95928,39.723234,-121.804955
Chicopee,MA,1020,42.172343,-72.573946
Chiefland,FL,32626,29.502205,-82.867627
Childress,TX,79201,34.435024,-100.234406
Chillicothe,MO,64601,39.7765306,-93.55634
Chillicothe,OH,45601,39.347821,-82.971217
Chilton,WI,53014,44.023831,-88.139233
Chino,CA,91710,33.995325,-117.719321
Chipley,FL,32428,30.752617,-85.54706
Chippewa Falls,WI,54729,44.883539,-91.421907
Choctaw,OK,73020,35.495974,-97.279399
Christiansburg,VA,24073,37.16055,-80.425764
Chubbuck,ID,83202,42.90994,-112.463531
Chula Vista,CA,91910,32.637851,-117.024932
Chula Vista,CA,91910,32.651877,-117.094289
Chula Vista,CA,91911,32.606887,-117.083014
Chula Vista,CA,91915,32.631012,-116.968043
Cibolo,TX,78108,29.573864,-98.236619
Cicero,IL,60804,41.8308636,-87.7472666
Cicero,NY,13039,43.161056,-76.11748
Cincinnati,OH,45227,39.148777,-84.402522
Cincinnati,OH,45238,39.128256,-84.597178
Cincinnati,OH,45239,39.224556,-84.591605
Cincinnati,OH,45240,39.296846,-84.518984
Cincinnati,OH,45241,39.249276,-84.42986
Cincinnati,OH,45245,39.090131,-84.269663
Cincinnati,OH,45251,39.260643,-84.597694
Cinnaminson,NJ,8077,40.007816,-74.980895
Circleville,OH,43113,39.582107,-82.948279
Citrus Heights,CA,95610,38.675699,-121.273287
Citrus Heights,CA,95621,38.689487,-121.295274
City Of Industry,CA,91745,33.998396,-117.932358
Clanton,AL,35045,32.816741,-86.609419
Claremont,NH,3743,43.378016,-72.328871
Claremore,OK,74017,36.293955,-95.627125
Clarion,PA,16214,41.188708,-79.396144
Clarksburg,WV,26301,39.263381,-80.285584
Clarksdale,MS,38614,34.180894,-90.59052
Clarkston,WA,99403,46.422883,-117.049459
Clarksville,AR,72830,35.4486832,-93.4604664
Clarksville,IN,47129,38.332009,-85.759053
Clarksville,TN,37040,36.582398,-87.335339
Clarksville,TN,37040,36.594714,-87.29121
Clarksville,TN,37042,36.5492805,-87.3963541
Clarksville,TN,37042,36.580158,-87.412899
Clarksville,TN,37042,36.6346024,-87.4226145
Clarksville,TN,37043,36.509439,-87.269068
Claypool,AZ,85532,33.41267,-110.835723
Clayton,GA,30525,34.859781,-83.404242
Clayton,NC,27520,35.6618,-78.497446
Clayton,OH,45315,39.856547,-84.334984
Clearfield,PA,16830,41.0320768,-78.4008523
Clearlake,CA,95422,38.931599,-122.616359
Clearwater,FL,33755,27.9870445,-82.7736996
Clearwater,FL,33765,27.959261,-82.748295
Clearwater,FL,33765,27.982801,-82.732518
Cleburne,TX,76033,32.341355,-97.41514
Clemmons,NC,27012,36.0208758,-80.3802065
Clemson,SC,29631,34.696807,-82.80105
Clermont,FL,34711,28.529979,-81.731337
Clermont,FL,34714,28.355155,-81.672532
Cleveland,GA,30528,34.579087,-83.759015
Cleveland,MS,38732,33.757227,-90.712128
Cleveland,OH,44109,41.461581,-81.692713
Cleveland,OH,44130,41.420513,-81.754117
Cleveland,OK,74020,36.297466,-96.463165
Cleveland,TN,37312,35.20219,-84.848963
Cleveland,TN,37323,35.125443,-84.868797
Cleveland,TX,77327,30.333624,-95.098051
Clewiston,FL,33440,26.756423,-80.948897
Clifton Park,NY,12065,42.846925,-73.74784
Clinton,AR,72031,35.5668534,-92.4544415
Clinton,IA,52732,41.8186521,-90.2426849
Clinton,IN,47842,39.656169,-87.431053
Clinton,MD,20735,38.772247,-76.889544
Clinton,MO,64735,38.362772,-93.750585
Clinton,MS,39056,32.3261145,-90.3046653
Clinton,NC,28328,34.988378,-78.352027
Clinton,NJ,8809,40.6284856,-74.9213196
Clinton,TN,37716,36.169769,-84.086851
Clinton,UT,84015,41.137418,-112.060877
Clinton Township,MI,48038,42.626106,-82.937533
Clio,MI,48420,43.174903,-83.77807
Cloquet,MN,55720,46.7033486,-92.4518609
Clovis,CA,93611,36.807126,-119.680832
Clovis,CA,93611,36.839765,-119.695785
Clovis,CA,93612,36.811301,-119.716929
Clovis,NM,88101,34.437698,-103.200403
Coachella,CA,92236,33.698811,-116.215202
Coal Township,PA,17866,40.7878265,-76.5051024
Cobleskill,NY,12043,42.6823913,-74.4552524
Cochran,GA,31014,32.400301,-83.336257
Cockeysville,MD,21030,39.47064,-76.643297
Cocoa,FL,32922,28.395378,-80.753116
Coconut Creek,FL,33073,26.318786,-80.200351
Cody,WY,82414,44.518147,-109.088799
Coffeyville,KS,67337,37.042359,-95.579038
Colby,KS,67701,39.36722,-101.047438
Coldwater,MI,49036,41.933638,-84.967451
College Park,GA,30349,33.586866,-84.472179
College Place,WA,99324,46.033222,-118.384132
College Station,TX,77845,30.597257,-96.300095
Colleyville,TX,76034,32.882306,-97.15712
Collierville,TN,38017,35.048344,-89.68099
Collinsville,IL,62234,38.674715,-90.017291
Collinsville,IL,62234,38.692651,-89.986908
Colonial Heights,VA,23834,37.2458298,-77.3863435
Colony,TX,75056,33.067154,-96.89221
Colorado Springs,CO,80905,38.823798,-104.837689
Colorado Springs,CO,80909,38.837516,-104.770387
Colorado Springs,CO,80909,38.8575837,-104.7928975
Colorado Springs,CO,80915,38.843099,-104.746892
Colorado Springs,CO,80915,38.854486,-104.721872
Colorado Springs,CO,80916,38.80758,-104.758479
Colorado Springs,CO,80918,38.8926905,-104.7555238
Colorado Springs,CO,80920,38.942711,-104.725347
Colorado Springs,CO,80920,38.949789,-104.799763
Colton,CA,92324,34.050112,-117.306233
Columbia,KY,42728,37.075612,-85.334473
Columbia,MD,21045,39.19579,-76.819837
Columbia,MO,65201,38.913092,-92.324097
Columbia,MO,65201,38.954911,-92.296729
Columbia,MO,65203,38.957069,-92.382341
Columbia,MS,39429,31.2439762,-89.8134185
Columbia,SC,29170,33.943928,-81.169058
Columbia,SC,29203,34.1380983,-80.9663092
Columbia,SC,29206,34.02128,-80.952336
Columbia,SC,29209,33.964176,-80.938599
Columbia,SC,29210,34.028461,-81.108395
Columbia,SC,29210,34.05649,-81.111633
Columbia,SC,29212,34.074009,-81.151125
Columbia,SC,29223,34.110157,-80.886603
Columbia,TN,38401,35.5989735,-87.0513091
Columbia City,IN,46725,41.170842,-85.496591
Columbus,GA,31903,32.423808,-84.945113
Columbus,GA,31904,32.506142,-84.977565
Columbus,GA,31907,32.468844,-84.910145
Columbus,GA,31909,32.522769,-84.949144
Columbus,GA,31909,32.538557,-84.87679
Columbus,GA,31909,32.540884,-84.945814
Columbus,GA,31909,32.552444,-84.895833
Columbus,IN,47201,39.19596,-85.946475
Columbus,IN,47201,39.206333,-85.879296
Columbus,MS,39705,33.518642,-88.439114
Columbus,NE,68601,41.441249,-97.31708
Columbus,OH,43207,39.88936,-83.001311
Columbus,OH,43219,40.06045,-82.913153
Columbus,OH,43220,40.067134,-83.0899235
Columbus,OH,43228,39.9269568,-83.1205358
Columbus,OH,43228,39.983447,-83.145016
Columbus,TX,78934,29.694586,-96.53837
Colville,WA,99114,48.55379,-117.915214
Commack,NY,11725,40.811786,-73.289495
Commerce,GA,30529,34.247854,-83.456616
Commerce,MI,48390,42.5595619,-83.4429342
Commerce,TX,75428,33.234935,-95.914764
Commerce City,CO,80022,39.804518,-104.928081
Compton,CA,90221,33.910022,-118.208176
Comstock Park,MI,49321,43.0363756,-85.6943095
Concord,NC,28027,35.366608,-80.665968
Concord,NC,28027,35.37866,-80.724834
Concord,NC,28027,35.388916,-80.622751
Concord,NH,3301,43.227474,-71.479866
Concordia,KS,66901,39.550916,-97.660502
Connellsville,PA,15425,40.0042345,-79.6076153
Connersville,IN,47331,39.684407,-85.136879
Conover,NC,28613,35.727427,-81.21099
Conroe,TX,77304,30.331402,-95.479103
Converse,TX,78109,29.497881,-98.325083
Converse,TX,78109,29.536019,-98.333469
Conway,AR,72032,35.10866,-92.436905
Conway,AR,72034,35.072895,-92.495185
Conway,AR,72034,35.094647,-92.462954
Conway,SC,29526,33.777583,-78.989089
Conway,SC,29526,33.857892,-79.091184
Conyers,GA,30013,33.652864,-83.996654
Cookeville,TN,38501,36.14509,-85.496886
Coolidge,AZ,85128,33.000049,-111.520207
Coon Rapids,MN,55448,45.207265,-93.362063
Cooper City,FL,33330,26.062116,-80.310563
Coos Bay,OR,97420,43.389624,-124.252099
Copperas Cove,TX,76522,31.118184,-97.870857
Coral Springs,FL,33067,26.278423,-80.203091
Coral Springs,FL,33067,26.288225,-80.25242
Coral Springs,FL,33071,26.242174,-80.267383
Coral Springs,FL,33076,26.304308,-80.276155
Coralville,IA,52241,41.697598,-91.612425
Corbin,KY,40701,36.972144,-84.102527
Cordele,GA,31015,31.964712,-83.761891
Cordova,TN,38018,35.140734,-89.798245
Corinth,MS,38834,34.910046,-88.502016
Cornelia,GA,30531,34.536413,-83.531914
Cornelius,OR,97113,45.522178,-123.069674
Corona,CA,92879,33.89087,-117.517267
Corona,CA,92881,33.846009,-117.541261
Corona,CA,92882,33.87734,-117.596143
Corpus Christi,TX,78410,27.853628,-97.633395
Corpus Christi,TX,78411,27.727731,-97.382927
Corpus Christi,TX,78414,27.679204,-97.37517
Corpus Christi,TX,78416,27.737979,-97.43886
Corpus Christi,TX,78418,27.674384,-97.300335
Corry,PA,16407,41.934047,-79.61228
Corsicana,TX,75110,32.066152,-96.505841
Cortez,CO,81321,37.346206,-108.561898
Cortland,NY,13045,42.569011,-76.218215
Cortland,OH,44410,41.274268,-80.771923
Corvallis,OR,97330,44.586907,-123.258871
Corydon,IN,47112,38.235277,-86.131157
Coshocton,OH,43812,40.295123,-81.850449
Cottage Grove,MN,55016,44.810716,-92.918766
Cottage Grove,OR,97424,43.800259,-123.043331
Cottonwood,AZ,86326,34.712898,-112.001321
Council Bluffs,IA,51501,41.227359,-95.843923
Council Bluffs,IA,51501,41.279969,-95.868901
Country Club Hills,IL,60478,41.583497,-87.716127
Coventry,RI,2816,41.663336,-71.555168
Covina,CA,91722,34.102622,-117.909601
Covington,GA,30014,33.610856,-83.830231
Covington,GA,30016,33.577117,-83.959197
Covington,LA,70433,30.443284,-90.078758
Covington,LA,70433,30.4720776,-90.0847276
Covington,TN,38019,35.545844,-89.665294
Covington,VA,24426,37.767378,-79.990957
Covington,WA,98042,47.361081,-122.108357
Coweta,OK,74429,36.001683,-95.677254
Craig,CO,81625,40.511514,-107.569572
Cranberry,PA,16319,41.348945,-79.718049
Cranberry Township,PA,16066,40.68772,-80.105554
Cranston,RI,2921,41.788163,-71.498321
Crawfordsville,IN,47933,40.013317,-86.907616
Crawfordville,FL,32327,30.216862,-84.360259
Crescent City,CA,95531,41.774985,-124.189935
Creston,IA,50801,41.045448,-94.372817
Crestview,FL,32536,30.727818,-86.564528
Crestwood,IL,60445,41.648217,-87.734201
Crestwood,KY,40014,38.337526,-85.473968
Crete,NE,68333,40.640458,-96.939443
Crockett,TX,75835,31.320306,-95.434461
Cromwell,CT,6416,41.605477,-72.711858
Crookston,MN,56716,47.791576,-96.607311
Crosby,TX,77532,29.894378,-95.065666
Cross Lanes,WV,25313,38.411369,-81.807563
Cross Roads,TX,76227,33.228007,-96.984024
Crossett,AR,71635,33.136229,-91.941957
Crossville,TN,38555,35.983311,-85.035712
Crowley,LA,70526,30.233198,-92.36465
Crowley,TX,76036,32.576633,-97.336527
Crowley,TX,76036,32.5770666,-97.3388787
Crystal Lake,IL,60014,42.209328,-88.282838
Cuba,MO,65453,38.073249,-91.40187
Cuero,TX,77954,29.089432,-97.271237
Cullman,AL,35055,34.14914,-86.842052
Cullman,AL,35058,34.204319,-86.869567
Culpeper,VA,22701,38.480524,-77.973335
Cumming,GA,30028,34.267078,-84.087093
Cumming,GA,30041,34.1001327,-84.1737497
Cumming,GA,30041,34.183876,-84.129022
Cushing,OK,74023,35.987433,-96.721249
Cut Off,LA,70345,29.4709045,-90.3243205
Cynthiana,KY,41031,38.378008,-84.30593
Cypress,TX,77429,29.975911,-95.697854
Cypress,TX,77429,29.981305,-95.610473
Cypress,TX,77433,29.8979437,-95.6831967
Cypress,TX,77433,29.94238,-95.680579
Dade City,FL,33525,28.342241,-82.185616
Dahlonega,GA,30533,34.538663,-83.972401
Dallas,GA,30157,33.935634,-84.730256
Dallas,NC,28034,35.316894,-81.196715
Dallas,OR,97338,44.931509,-123.306736
Dallas,TX,75204,32.800647,-96.794125
Dallas,TX,75211,32.7625783,-96.8973313
Dallas,TX,75220,32.862217,-96.856976
Dallas,TX,75227,32.759929,-96.684475
Dallas,TX,75228,32.793803,-96.689232
Dallas,TX,75228,32.835963,-96.67637
Dallas,TX,75231,32.862849,-96.754838
Dallas,TX,75232,32.6837453,-96.8253449
Dallas,TX,75237,32.649606,-96.872464
Dallas,TX,75243,32.910853,-96.738831
Dallas,TX,75243,32.936903,-96.752775
Dallas,TX,75244,32.921859,-96.840429
Dallas,TX,75248,32.95882,-96.816127
Dallas,TX,75248,32.963412,-96.770294
Dallas,TX,75249,32.6496506,-96.9444264
Dallas,TX,75287,32.995084,-96.857858
Dalton,GA,30720,34.762529,-84.968896
Dalton,GA,30720,34.786712,-84.998972
Dalton,GA,30721,34.76783,-84.92994
Danbury,CT,6810,41.407877,-73.412984
Dania Beach,FL,33004,26.035061,-80.136421
Danvers,MA,1923,42.55444,-70.968233
Danville,IL,61834,40.201449,-87.627697
Danville,IN,46122,39.759267,-86.489263
Danville,KY,40422,37.614603,-84.77169
Danville,VA,24540,36.596821,-79.430521
Danville,VA,24540,36.627419,-79.399419
Daphne,AL,36526,30.6250365,-87.9046017
Dardanelle,AR,72834,35.2179,-93.166461
Darien,IL,60561,41.748743,-87.999849
Darlington,SC,29532,34.285231,-79.856674
Davenport,IA,52806,41.557447,-90.622671
Davenport,IA,52807,41.580699,-90.524339
Davie,FL,33024,26.043145,-80.258481
Davie,FL,33328,26.066616,-80.254149
Dawsonville,GA,30534,34.3549547,-84.041709
Dayton,OH,45414,39.84597,-84.19648
Dayton,OH,45458,39.630918,-84.211623
Dayton,OH,45459,39.647596,-84.107268
Dayton,TN,37321,35.460395,-85.043829
Daytona Beach,FL,32117,29.248897,-81.067214
Daytona Beach,FL,32119,29.17252,-81.02998
De Funiak Springs,FL,32433,30.704493,-86.125068
De Pere,WI,54115,44.43273,-88.10272
De Queen,AR,71832,34.043471,-94.319058
De Soto,MO,63020,38.150177,-90.574504
Dearborn,MI,48126,42.33137,-83.209571
Debary,FL,32713,28.897926,-81.304113
Decatur,AL,35601,34.588891,-86.981859
Decatur,AL,35603,34.556416,-86.995956
Decatur,GA,30032,33.757277,-84.268408
Decatur,GA,30033,33.792235,-84.288978
Decatur,IL,62521,39.818476,-88.883133
Decatur,IL,62526,39.899848,-88.951475
Decatur,IN,46733,40.808859,-84.940946
Decatur,TX,76234,33.228422,-97.597203
Decorah,IA,52101,43.291583,-91.753709
Deerfield Beach,FL,33442,26.302947,-80.132043
Defiance,OH,43512,41.305318,-84.364403
Dekalb,IL,60115,41.949345,-88.72142
Del Rio,TX,78840,29.395726,-100.900994
Delafield,WI,53018,43.048863,-88.369181
Deland,FL,32720,29.061722,-81.301695
Deland,FL,32724,29.012008,-81.301391
Delano,CA,92315,35.743983,-119.248053
Delavan,WI,53115,42.630718,-88.612483
Delaware,OH,43015,40.265977,-83.073579
Delmont,PA,15626,40.399049,-79.590241
Delray Beach,FL,33483,26.4258162,-80.0716085
Delray Beach,FL,33484,26.436375,-80.124371
Delta,CO,81416,38.749201,-108.05413
Deltona,FL,32725,28.906876,-81.245296
Deltona,FL,32738,28.869772,-81.164118
Deming,NM,88030,32.270558,-107.747058
Demopolis,AL,36732,32.493003,-87.849349
Denham Springs,LA,70706,30.561997,-90.95876
Denham Springs,LA,70726,30.4439235,-90.9452748
Denham Springs,LA,70726,30.47255,-90.954325
Denison,IA,51442,42.026224,-95.371661
Denison,TX,75020,33.759174,-96.587537
Denton,MD,21629,38.874403,-75.821694
Denton,TX,76201,33.233185,-97.168051
Denton,TX,76205,33.191193,-97.093584
Denton,TX,76210,33.159879,-97.107633
Denver,CO,80207,39.769707,-104.89727
Denver,CO,80219,39.67762,-105.021464
Denver,CO,80231,39.651773,-104.879043
Denver,CO,80231,39.690304,-104.8887
Denver,CO,80239,39.786271,-104.811498
Denver,NC,28037,35.45178,-81.001304
Deptford,NJ,8096,39.8442693,-75.0915553
Derby,KS,67037,37.532798,-97.242388
Derby,KS,67037,37.568988,-97.274999
Derby,VT,5829,44.949783,-72.171052
Deridder,LA,70634,30.866174,-93.288017
Derry,NH,3038,42.902092,-71.325871
Des Moines,IA,50320,41.536957,-93.59297
Des Moines,IA,50324,41.596983,-93.713782
Des Plaines,IL,60016,42.04599,-87.938222
Desloge,MO,63601,37.883896,-90.513307
Desoto,TX,75115,32.5734336,-96.8577324
Desoto,TX,75115,32.592876,-96.879774
Destin,FL,32541,30.389545,-86.449696
Detroit Lakes,MN,56501,46.825569,-95.877746
Devils Lake,ND,58301,48.0979954,-98.8418135
Devine,TX,78016,29.133441,-98.894305
Dexter,MO,63841,36.801185,-89.992373
Diamond Bar,CA,91765,34.001124,-117.809269
Diberville,MS,39540,30.436819,-88.891715
Diberville,MS,39540,30.456509,-88.895194
Dickinson,ND,58601,46.908396,-102.787045
Dickson,TN,37055,36.0599933,-87.3812037
Dickson City,PA,18519,41.465598,-75.6422658
Dillon,SC,29536,34.4358664,-79.3765944
Dilworth,MN,56529,46.88175,-96.722497
Dinuba,CA,93618,36.543418,-119.402385
Dixon,CA,95620,38.471927,-121.820361
Dixon,IL,61021,41.827442,-89.471721
Dodge City,KS,67801,37.768588,-100.035792
Dodgeville,WI,53533,42.973808,-90.119979
Donaldsonville,LA,70346,30.095133,-90.980352
Donna,TX,78537,26.1832411,-98.0384441
Doral,FL,33126,25.787081,-80.335317
Dothan,AL,36301,31.178814,-85.404472
Dothan,AL,36303,31.268054,-85.441109
Dothan,AL,36305,31.231526,-85.450493
Douglas,AZ,85607,31.338217,-109.565561
Douglas,GA,31533,31.484879,-82.848265
Douglasville,GA,30134,33.732555,-84.756492
Dover,DE,19901,39.216724,-75.570866
Downey,CA,90242,33.924644,-118.129015
Downey,CA,90242,33.928185,-118.147756
Draper,UT,84020,40.526738,-111.852489
Dry Ridge,KY,41035,38.678945,-84.597128
Du Bois,PA,15801,41.1281024,-78.7374441
Du Quoin,IL,62832,37.997658,-89.238137
Duarte,CA,91010,34.134035,-117.9838889
Dublin,GA,31021,32.551232,-82.972249
Dublin,OH,43016,40.073985,-83.137543
Dublin,OH,43016,40.123497,-83.087084
Dublin,VA,24084,37.084046,-80.694436
Dubuque,IA,52003,42.487476,-90.736319
Dulles,VA,20166,38.935887,-77.523547
Duluth,GA,30096,33.970083,-84.150415
Dumas,TX,79029,35.840033,-101.970763
Dumfries,VA,22026,38.581143,-77.308069
Duncan,OK,73533,34.527588,-97.970283
Duncansville,PA,16635,40.370349,-78.432848
Dundalk,MD,21222,39.2854,-76.4983
Dunedin,FL,34698,28.020537,-82.750482
Dunkirk,MD,20754,38.722503,-76.65699
Dunlap,TN,37327,35.386379,-85.382194
Dunnellon,FL,34432,29.063306,-82.455801
Dunwoody,GA,30338,33.9333,-84.3332
Dunwoody,GA,30360,33.94189,-84.269679
Durango,CO,81303,37.230004,-107.865779
Durant,OK,74701,34.000327,-96.41328
Durham,NC,27704,36.02823,-78.843746
Durham,NC,27707,35.9549,-78.9991
Dyersburg,TN,38024,36.063412,-89.391879
Eagan,MN,55123,44.828515,-93.161911
Eagle Pass,TX,78852,28.701256,-100.480817
Eagle Point,OR,97524,42.4691915,-122.8138922
Eagle River,AK,99577,61.309037,-149.535439
Easley,SC,29640,34.8284813,-82.5494312
East Brunswick,NJ,8816,40.4588509,-74.3988893
East Ellijay,GA,30540,34.656273,-84.488294
East Greenville,PA,18041,40.410725,-75.510578
East Liverpool,OH,43920,40.6641378,-80.5863982
East Meadow,NY,11554,40.726907,-73.543756
East Peoria,IL,61611,40.683779,-89.584886
East Point,GA,30344,33.678363,-84.416522
East Ridge,TN,37412,34.995904,-85.245885
East Setauket,NY,11733,40.903048,-73.078212
East Stroudsburg,PA,18301,40.98995,-75.182865
East Syracuse,NY,13057,43.060842,-76.060077
East Windsor,CT,6088,41.919366,-72.606719
East Windsor,NJ,8520,40.253991,-74.55326
Eastanollee,GA,30538,34.548085,-83.283794
Eastlake,OH,44095,41.64066,-81.44688
Eastland,TX,76448,32.40464,-98.793031
Eastman,GA,31023,32.178956,-83.177707
Easton,MD,21601,38.772711,-76.05434
Easton,PA,18045,40.714538,-75.281208
Eaton,OH,45320,39.767969,-84.633418
Eatonton,GA,31024,33.295546,-83.388909
Eau Claire,WI,54701,44.776217,-91.428324
Ebensburg,PA,15931,40.475399,-78.750382
Economy,PA,15005,40.658211,-80.226573
Eddystone,PA,19022,39.863664,-75.340694
Eden,NC,27288,36.488342,-79.733948
Eden Prairie,MN,55344,44.8562449,-93.431226
Edgewood,NM,87015,35.070864,-106.188075
Edinboro,PA,16412,41.87676,-80.174154
Edinburg,TX,78539,26.267713,-98.204566
Edinburg,TX,78539,26.301269,-98.181031
Edinburg,TX,78542,26.271279,-98.1518
Edison,NJ,8817,40.53197,-74.376319
Edmond,OK,73003,35.665621,-97.512067
Edmond,OK,73013,35.639668,-97.53257
Edmond,OK,73034,35.640173,-97.429241
Edmond,OK,73034,35.654025,-97.463461
Effingham,IL,62401,39.140472,-88.561536
Egg Hbr Township,NJ,8234,39.395087,-74.550923
El Cajon,CA,92020,32.804338,-116.968341
El Cajon,CA,92021,32.797303,-116.936688
El Cajon,CA,92021,32.822626,-116.901748
El Campo,TX,77437,29.216807,-96.292641
El Centro,CA,92243,32.813411,-115.577324
El Dorado,AR,71730,33.2420091,-92.6686538
El Dorado,KS,67042,37.814622,-96.892174
El Mirage,AZ,85335,33.610608,-112.33649
El Paso,TX,79904,31.829155,-106.447104
El Paso,TX,79904,31.869188,-106.432354
El Paso,TX,79907,31.683055,-106.311671
El Paso,TX,79907,31.728537,-106.345055
El Paso,TX,79912,31.836124,-106.565677
El Paso,TX,79912,31.861038,-106.559346
El Paso,TX,79922,31.811007,-106.557792
El Paso,TX,79924,31.896254,-106.438215
El Paso,TX,79925,31.777143,-106.384345
El Paso,TX,79932,31.861894,-106.586847
El Paso,TX,79934,31.926211,-106.440485
El Paso,TX,79935,31.753235,-106.339982
El Paso,TX,79936,31.742491,-106.289318
El Paso,TX,79936,31.755778,-106.270893
El Paso,TX,79936,31.783243,-106.282976
El Paso,TX,79938,31.79581,-106.229737
El Paso,TX,79938,31.8050809,-106.2620857
El Reno,OK,73036,35.511165,-97.976009
Eldon,MO,65026,38.3352206,-92.5838242
Elgin,IL,60123,42.003553,-88.339659
Elgin,TX,78621,30.349546,-97.390089
Elizabeth,CO,80107,39.360377,-104.623497
Elizabeth City,NC,27909,36.296203,-76.298392
Elizabethton,TN,37643,36.349209,-82.245352
Elizabethtown,KY,42701,37.732984,-85.881905
Elizabethtown,NC,28337,34.630698,-78.6199
Elizabethville,PA,17023,40.555853,-76.79168
Elk City,OK,73644,35.409307,-99.37645
Elk Grove,CA,95757,38.391338,-121.41621
Elk Grove,CA,95758,38.410207,-121.39202
Elk Grove,CA,95758,38.411762,-121.391694
Elk Grove Village,IL,60007,42.001684,-88.043323
Elk River,MN,55330,45.30054,-93.549071
Elkhart,IN,46514,41.686708,-86.058425
Elkhart,IN,46514,41.72195,-85.978848
Elkin,NC,28621,36.275974,-80.832332
Elkins,WV,26241,38.89265,-79.843661
Elko,NV,89801,40.840864,-115.792468
Elkton,MD,21921,39.603188,-75.792787
Ellenwood,GA,30294,33.636377,-84.292949
Ellicott City,MD,21043,39.2828,-76.8207
Ellsworth,ME,4605,44.524801,-68.392911
Elsa,TX,78543,26.2874705,-97.9905849
Elverson,PA,19520,40.153132,-75.862418
Elyria,OH,44035,41.350947,-82.067295
Emporia,KS,66801,38.424985,-96.219695
Emporia,VA,23847,36.7073486,-77.544623
Encinitas,CA,92024,33.069254,-117.266426
Englewood,CO,80110,39.656168,-104.994756
Englewood,FL,34224,26.932272,-82.310316
Enid,OK,73703,36.387842,-97.945621
Enid,OK,73703,36.406535,-97.9096037
Ennis,TX,75119,32.333377,-96.620823
Enterprise,AL,36330,31.3159,-85.826397
Ephraim,UT,84627,39.37385,-111.589816
Ephrata,PA,17522,40.167206,-76.152704
Ephrata,WA,98823,47.30449,-119.540466
Epping,NH,3042,43.027448,-71.068055
Erie,PA,16504,42.122991,-80.041162
Erie,PA,16506,42.0679412,-80.1958952
Erie,PA,16509,42.052037,-80.079822
Erwin,NC,28339,35.320606,-78.648261
Escanaba,MI,49829,45.7524691,-87.0827258
Escondido,CA,92027,33.1300697,-117.0629723
Escondido,CA,92027,33.130137,-117.062977
Espanola,NM,87532,36.015446,-106.067639
Estero,FL,33928,26.450929,-81.816809
Etters,PA,17319,40.149635,-76.813225
Eufaula,AL,36027,31.843586,-85.171043
Eugene,OR,97402,44.0459,-123.169349
Eugene,OR,97408,44.090731,-123.093449
Eunice,LA,70535,30.491529,-92.446893
Eureka,CA,95501,40.780681,-124.190507
Eureka,MO,63025,38.50661,-90.656737
Evans,GA,30809,33.545794,-82.142287
Evans Mills,NY,13637,44.040509,-75.844512
Evanston,WY,82930,41.265902,-110.953877
Evansville,IN,47710,38.002606,-87.575764
Evansville,IN,47712,37.972732,-87.636218
Evansville,IN,47714,37.958324,-87.508809
Evansville,IN,47715,37.980387,-87.472383
Everett,PA,15537,40.02317,-78.44708
Everett,WA,98204,47.894532,-122.2558117
Everett,WA,98208,47.914407,-122.213722
Evergreen,CO,80439,39.701098,-105.327102
Evergreen Park,IL,60805,41.7218,-87.6862
Excelsior Springs,MO,64024,39.329466,-94.265105
Exton,PA,19341,40.022381,-75.633385
Fairbanks,AK,99701,64.856378,-147.689549
Fairbury,NE,68352,40.162702,-97.175372
Fairfax,VA,22030,38.849747,-77.331973
Fairfax,VA,22033,38.854186,-77.396567
Fairfield,CA,94533,38.2790814,-122.0352432
Fairfield,IA,52556,41.0076525,-91.993235
Fairfield,IL,62837,38.376002,-88.38918
Fairhaven,MA,2719,41.644861,-70.888131
Fairhope,AL,36532,30.522315,-87.848815
Fairlawn,OH,44333,41.134599,-81.632037
Fairlawn,VA,24141,37.152359,-80.584909
Fairmont,MN,56031,43.681934,-94.444776
Fairmont,WV,26554,39.424718,-80.190933
Fairview,TN,37062,35.963016,-87.140019
Fajardo,PR,738,18.34303,-65.674169
Falcon,CO,80831,38.939301,-104.613146
Fall River,MA,2721,41.686277,-71.141228
Fallon,NV,89406,39.475754,-118.80654
Fallston,MD,21047,39.498449,-76.384659
Falmouth,ME,4105,43.720249,-70.235287
Fargo,ND,58103,46.864665,-96.865768
Fargo,ND,58104,46.8014852,-96.8420367
Faribault,MN,55021,44.290001,-93.306053
Farmers Branch,TX,75234,32.923531,-96.880021
Farmerville,LA,71241,32.773497,-92.39437
Farmingdale,NY,11735,40.726881,-73.420396
Farmington,AR,72730,36.036758,-94.256232
Farmington,ME,4938,44.630623,-70.158672
Farmington,MO,63640,37.7894913,-90.4353609
Farmington,NM,87401,36.7318789,-108.2261788
Farmington,NM,87402,36.767974,-108.15152
Farmville,VA,23901,37.278882,-78.402097
Fayette,AL,35555,33.731681,-87.808643
Fayetteville,AR,72701,36.05757,-94.168541
Fayetteville,AR,72701,36.073259,-94.175171
Fayetteville,AR,72703,36.089556,-94.12304
Fayetteville,AR,72703,36.122616,-94.15276
Fayetteville,AR,72704,36.050008,-94.201133
Fayetteville,AR,72704,36.076341,-94.210117
Fayetteville,GA,30214,33.481376,-84.443322
Fayetteville,NC,28303,35.081861,-78.957212
Fayetteville,NC,28304,35.024684,-79.053432
Fayetteville,NC,28304,35.040391,-78.998765
Fayetteville,NC,28306,35.002957,-78.903565
Fayetteville,NC,28311,35.097961,-78.918123
Fayetteville,NC,28311,35.123659,-78.883003
Fayetteville,NC,28314,35.0545697,-79.0640008
Fayetteville,TN,37334,35.136734,-86.564496
Fayetteville,WV,25840,38.034292,-81.119714
Federal Way,WA,98003,47.292601,-122.310195
Federal Way,WA,98003,47.321787,-122.30978
Fenton,MI,48430,42.792319,-83.744349
Fenton,MO,63026,38.510098,-90.438772
Fergus Falls,MN,56537,46.292561,-96.12436
Fernandina Beach,FL,32034,30.64744,-81.456183
Fernley,NV,89408,39.611301,-119.216828
Festus,MO,63028,38.211942,-90.387955
Findlay,OH,45840,41.055741,-83.672623
Findlay,OH,45840,41.057471,-83.594348
Fishers,IN,46037,39.929679,-86.0211573
Fishers,IN,46038,39.981027,-86.001577
Fishkill,NY,12524,41.530779,-73.897109
Fitzgerald,GA,31750,31.689946,-83.248393
Flagstaff,AZ,86001,35.176555,-111.664611
Flagstaff,AZ,86004,35.199628,-111.61427
Flanders,NJ,7836,40.881852,-74.708272
Flemington,NJ,8822,40.527484,-74.850912
Flint,MI,48532,42.99963,-83.76458
Flippin,AR,72634,36.275243,-92.604523
Flora,IL,62839,38.682176,-88.49584
Florence,AL,35630,34.817941,-87.656437
Florence,AL,35630,34.834244,-87.625236
Florence,AL,35633,34.8430048,-87.6918276
Florence,KY,41042,39.011316,-84.650727
Florence,SC,29501,34.174603,-79.810763
Florence,SC,29501,34.193435,-79.820891
Florence,SC,29505,34.155229,-79.764058
Floresville,TX,78114,29.162266,-98.179983
Florida City,FL,33034,25.4576229,-80.4731368
Florissant,MO,63033,38.8111037,-90.2925148
Flower Mound,TX,75022,33.016016,-97.071956
Flowood,MS,39232,32.350704,-90.023756
Foley,AL,36535,30.382508,-87.686381
Folsom,CA,95630,38.668326,-121.167602
Fond Du Lac,WI,54937,43.787802,-88.483995
Fontana,CA,92335,34.105588,-117.428136
Foothill Ranch,CA,92610,33.679795,-117.671317
Fordyce,AR,71742,33.820498,-92.435566
Forest,MS,39074,32.338638,-89.486173
Forest,VA,24551,37.3654387,-79.2624709
Forest City,NC,28043,35.335022,-81.899506
Forest Lake,MN,55025,45.276821,-93.001975
Forest Park,IL,60130,41.86174,-87.8176469
Forney,TX,75126,32.745312,-96.445649
Forrest City,AR,72335,35.028039,-90.793582
Forsyth,GA,31029,33.042326,-83.94326
Fort Collins,CO,80524,40.586243,-105.054716
Fort Collins,CO,80525,40.521308,-105.079542
Fort Dodge,IA,50501,42.506696,-94.153204
Fort Gratiot,MI,48059,43.049135,-82.460811
Fort Lauderdale,FL,33312,26.119082,-80.175083
Fort Mill,SC,29715,35.005992,-80.930448
Fort Mohave,AZ,86426,35.005729,-114.594695
Fort Morgan,CO,80701,40.260936,-103.76949
Fort Myers,FL,33912,26.525299,-81.868597
Fort Myers,FL,33919,26.555041,-81.906145
Fort Myers,FL,33966,26.610823,-81.814048
Fort Myers Beach,FL,33931,26.491939,-81.940449
Fort Oglethorpe,GA,30742,34.936522,-85.216181
Fort Oglethorpe,GA,30742,34.9547985,-85.2447285
Fort Payne,AL,35968,34.440216,-85.76195
Fort Pierce,FL,34947,27.421425,-80.377918
Fort Scott,KS,66701,37.807978,-94.708671
Fort Smith,AR,72901,35.329141,-94.406562
Fort Smith,AR,72903,35.350111,-94.338702
Fort Smith,AR,72903,35.364078,-94.37876
Fort Smith,AR,72904,35.399753,-94.363077
Fort Smith,AR,72908,35.3033487,-94.3947163
Fort Stockton,TX,79735,30.896466,-102.907161
Fort Walton Beach,FL,32547,30.441009,-86.64161
Fort Wayne,IN,46804,41.069749,-85.202719
Fort Wayne,IN,46816,41.014001,-85.120347
Fort Wayne,IN,46818,41.176255,-85.169186
Fort Wayne,IN,46825,41.127955,-85.13816
Fort Wayne,IN,46835,41.128329,-85.006727
Fort Worth,TX,76052,32.967481,-97.411356
Fort Worth,TX,76105,32.71078,-97.283333
Fort Worth,TX,76108,32.765568,-97.484281
Fort Worth,TX,76110,32.704578,-97.332211
Fort Worth,TX,76111,32.774685,-97.292334
Fort Worth,TX,76114,32.7819626,-97.3809364
Fort Worth,TX,76116,32.703367,-97.428115
Fort Worth,TX,76120,32.764623,-97.169284
Fort Worth,TX,76123,32.629821,-97.407583
Fort Worth,TX,76132,32.664652,-97.405728
Fort Worth,TX,76133,32.636656,-97.367246
Fort Worth,TX,76137,32.875115,-97.270599
Fort Worth,TX,76244,32.895003,-97.286601
Fort Worth,TX,76244,32.913081,-97.288509
Fountain,CO,80817,38.74038,-104.736761
Fountain,CO,80906,38.768632,-104.781091
Fowlerville,MI,48836,42.648099,-84.077745
Framingham,MA,1701,42.300898,-71.399512
Frankfort,IN,46041,40.28147,-86.478464
Frankfort,KY,40601,38.160484,-84.899243
Franklin,IN,46131,39.502476,-86.066193
Franklin,KY,42134,36.694977,-86.573045
Franklin,LA,70538,29.814155,-91.51306
Franklin,NC,28734,35.1663604,-83.3649369
Franklin,NJ,7416,41.116058,-74.578954
Franklin,OH,45005,39.566297,-84.277752
Franklin,TN,37067,35.93902,-86.819155
Franklin,VA,23851,36.669841,-76.95532
Franklin,WI,53132,42.923183,-87.952428
Frederick,MD,21701,39.446006,-77.387222
Frederick,MD,21704,39.39644,-77.410976
Fredericksburg,TX,78624,30.255199,-98.852523
Fredericksburg,VA,22401,38.30653,-77.51382
Fredericksburg,VA,22405,38.283996,-77.438543
Fredericksburg,VA,22406,38.369344,-77.529197
Fredericksburg,VA,22407,38.237074,-77.509207
Fredericktown,MO,63645,37.5589096,-90.3197291
Fredonia,NY,14063,42.45371,-79.313292
Freehold,NJ,7728,40.243675,-74.293439
Freeport,IL,61032,42.263954,-89.628318
Fremont,CA,94538,37.520242,-121.985626
Fremont,CA,94539,37.511302,-121.943195
Fremont,MI,49412,43.470111,-85.976337
Fremont,NE,68025,41.453353,-96.457539
Fremont,OH,43420,41.374632,-83.119987
Fresno,CA,93650,36.8391419,-119.8033202
Fresno,CA,93703,36.778967,-119.756212
Fresno,CA,93710,36.836316,-119.731113
Fresno,CA,93722,36.810606,-119.860333
Fresno,CA,93726,36.79259,-119.789216
Fresno,CA,93727,36.738206,-119.721718
Fridley,MN,55432,45.121055,-93.265533
Friendswood,TX,77546,29.551853,-95.159295
Frisco,CO,80443,39.586924,-106.096315
Frisco,TX,75033,33.179665,-96.883654
Frisco,TX,75034,33.143498,-96.888793
Frisco,TX,75034,33.147193,-96.80786
Front Royal,VA,22630,38.960135,-78.187744
Fruit Cove,FL,32259,30.11968,-81.623988
Ft Wright,KY,41017,39.035413,-84.536092
Fulton,KY,42041,36.51749,-88.900147
Fulton,MO,65251,38.864222,-91.945748
Fulton,MS,38843,34.2420797,-88.3972337
Fulton,NY,13069,43.323635,-76.448689
Fuquay Varina,NC,27526,35.59474,-78.781156
Gadsden,AL,35903,34.012769,-85.987031
Gaffney,SC,29341,35.087204,-81.665835
Gainesville,FL,32608,29.625994,-82.377396
Gainesville,FL,32641,29.663923,-82.301116
Gainesville,FL,32653,29.708414,-82.35647
Gainesville,GA,30501,34.321869,-83.834674
Gainesville,GA,30504,34.2801955,-83.8752864
Gainesville,GA,30504,34.2917,-83.8506
Gainesville,TX,76240,33.645646,-97.13596
Galax,VA,24333,36.692545,-80.880999
Galena,IL,61036,42.435085,-90.445633
Galesburg,IL,61401,40.981605,-90.359891
Gallatin,TN,37066,36.376943,-86.476816
Gallipolis,OH,45631,38.821547,-82.171727
Gallup,NM,87301,35.528593,-108.769019
Galt,CA,95632,38.289653,-121.304762
Galveston,TX,77551,29.265049,-94.833163
Garden City,KS,67846,37.986336,-100.836526
Garden City,KS,67846,37.987001,-100.881577
Garden City Beach,SC,29576,33.588182,-79.011671
Garden Grove,CA,92840,33.800975,-117.94235
Garden Grove,CA,92841,33.790787,-117.964352
Gardendale,AL,35071,33.647006,-86.822779
Gardner,KS,66030,38.80882,-94.893071
Gardner,MA,1440,42.55141,-71.994725
Gardnerville,NV,89410,38.923919,-119.721182
Garfield,NJ,7026,40.866688,-74.100931
Garland,TX,75040,32.896593,-96.649544
Garland,TX,75040,32.931981,-96.631591
Garland,TX,75040,32.962318,-96.642557
Garland,TX,75041,32.8630502,-96.652042
Garland,TX,75043,32.842368,-96.597859
Garland,TX,75043,32.864742,-96.606901
Garner,NC,27529,35.608001,-78.555405
Gastonia,NC,28052,35.260797,-81.226489
Gastonia,NC,28054,35.243593,-81.124876
Gastonia,NC,28056,35.262364,-81.124124
Gatesville,TX,76528,31.425255,-97.712956
Gaylord,MI,49735,45.022509,-84.689914
Geneseo,IL,61254,41.43277,-90.155134
Geneseo,NY,14454,42.802569,-77.788392
Geneva,AL,36340,31.051472,-85.899404
Geneva,NY,14456,42.859824,-77.021515
Georgetown,DE,19947,38.702618,-75.404416
Georgetown,KY,40324,38.230487,-84.538624
Georgetown,KY,40324,38.261167,-84.531226
Georgetown,SC,29440,33.393724,-79.286271
Georgetown,TX,78628,30.64515,-97.692098
Germantown,MD,20876,39.19882,-77.252444
Germantown,WI,53022,43.196221,-88.146349
Gettysburg,PA,17325,39.843289,-77.204574
Gibsonia,PA,15044,40.623175,-79.946528
Gibsonton,FL,33534,27.847235,-82.354334
Giddings,TX,78942,30.177696,-96.915709
Gilbert,AZ,85295,33.304999,-111.741012
Gilbert,AZ,85295,33.319619,-111.689643
Gilford,NH,3249,43.5668817,-71.4389761
Gillette,WY,82718,44.273032,-105.498154
Gilmer,TX,75644,32.747175,-94.93762
Gilroy,CA,95020,37.008583,-121.551183
Gladstone,MO,64119,39.225427,-94.545685
Glasgow,KY,42141,37.020959,-85.937747
Glen Allen,VA,23060,37.652043,-77.608163
Glen Burnie,MD,21060,39.190013,-76.605743
Glen Carbon,IL,62034,38.7753749,-89.952569
Glen Ellyn,IL,60137,41.8285902,-88.0568914
Glendale,AZ,85301,33.551186,-112.179904
Glendale,AZ,85302,33.5647729,-112.1700005
Glendale,AZ,85302,33.5802237,-112.2019234
Glendale,AZ,85303,33.539296,-112.218862
Glendale,AZ,85305,33.51025,-112.267293
Glendale,AZ,85308,33.636517,-112.184744
Glendale,AZ,85308,33.65067,-112.234138
Glendale,AZ,85308,33.656074,-112.150364
Glendale,AZ,85310,33.713791,-112.201314
Glendora,CA,91740,34.116431,-117.82595
Glenmont,NY,12077,42.608957,-73.792705
Glenolden,PA,19036,39.907201,-75.292055
Glenpool,OK,74033,35.983849,-96.014187
Glenville,NY,12302,42.84173,-73.944171
Glenwood Springs,CO,81601,39.521948,-107.319842
Gloucester,VA,23061,37.400469,-76.528717
Gloversville,NY,12078,43.031276,-74.342248
Goddard,KS,67052,37.660652,-97.554652
Godfrey,IL,62035,38.964652,-90.196316
Goldsboro,NC,27530,35.431567,-78.061712
Goldsboro,NC,27534,35.3448733,-77.9168643
Goldsboro,NC,27534,35.38627,-77.94542
Goldsboro,NC,27534,35.414242,-77.938566
Gonzales,LA,70737,30.235411,-90.908985
Gonzales,TX,78629,29.5164259,-97.4491852
Goodland,KS,67735,39.334287,-101.7285
Goodyear,AZ,85338,33.459558,-112.395288
Goodyear,AZ,85395,33.4871959,-112.3644107
Goose Creek,SC,29445,32.970025,-80.003193
Goose Creek,SC,29445,33.008051,-80.047046
Goose Creek,SC,29445,33.033723,-80.064175
Gordonsville,VA,22942,37.97744,-78.209147
Gorham,NH,3581,44.426709,-71.194051
Goshen,IN,46526,41.557154,-85.78785
Goshen,IN,46526,41.618093,-85.899957
Grafton,WV,26354,39.358593,-79.996556
Graham,TX,76450,33.082267,-98.58074
Granbury,TX,76048,32.432088,-97.780249
Grand Blanc,MI,48439,42.938685,-83.649424
Grand Forks,ND,58201,47.887004,-97.064722
Grand Forks,ND,58203,47.930327,-97.113369
Grand Haven,MI,49417,43.035562,-86.216632
Grand Island,NE,68801,40.885365,-98.336154
Grand Island,NE,68803,40.94271,-98.387075
Grand Junction,CO,81501,39.075137,-108.518745
Grand Junction,CO,81504,39.083457,-108.474014
Grand Junction,CO,81505,39.076252,-108.581738
Grand Prairie,TX,75052,32.673377,-97.036253
Grand Prairie,TX,75052,32.707266,-97.021079
Grand Rapids,MI,49546,42.914414,-85.520857
Grand Rapids,MN,55744,47.2017,-93.525989
Grandville,MI,49418,42.88148,-85.780604
Granite Bay,CA,95746,38.742435,-121.224989
Granite City,IL,62040,38.736533,-90.141487
Granite Falls,NC,28630,35.781341,-81.394266
Grants,NM,87020,35.12473,-107.825679
Grants Pass,OR,97526,42.434355,-123.301989
Grantsboro,NC,28529,35.144689,-76.835794
Grapevine,TX,76051,32.930782,-97.1017
Great Bend,KS,67530,38.358995,-98.7872
Great Falls,MT,59404,47.52661,-111.296587
Great Falls,MT,59405,47.491452,-111.218821
Greece,NY,14616,43.239688,-77.643554
Greece,NY,14626,43.214571,-77.724256
Greeley,CO,80631,40.386203,-104.719081
Greeley,CO,80634,40.422824,-104.754675
Green Bay,WI,54303,44.526822,-88.090801
Green Bay,WI,54311,44.478683,-87.970999
Green Valley,AZ,85614,31.912168,-110.982594
Greenacres,FL,33415,26.64949,-80.142537
Greenacres,FL,33467,26.621377,-80.147642
Greenbrier,AR,72058,35.225788,-92.389561
Greencastle,IN,46135,39.643694,-86.823489
Greendale,WI,53129,42.947878,-88.011026
Greeneville,TN,37745,36.18768,-82.759393
Greenfield,IN,46140,39.812717,-85.766655
Greenfield,WI,53228,42.960177,-88.044234
Greensboro,NC,27405,36.109195,-79.756949
Greensboro,NC,27406,36.002186,-79.799652
Greensboro,NC,27406,36.040217,-79.770824
Greensboro,NC,27407,36.038628,-79.848981
Greensboro,NC,27407,36.057874,-79.90087
Greensboro,NC,27410,36.0877111,-79.886256
Greensboro,NC,27410,36.135406,-79.855475
Greensburg,IN,47240,39.359859,-85.474983
Greensburg,PA,15601,40.3089103,-79.5813259
Greenville,AL,36037,31.849507,-86.647223
Greenville,MI,48838,43.179969,-85.290091
Greenville,MS,38701,33.3678514,-91.0438728
Greenville,NC,27834,35.577534,-77.387548
Greenville,NC,27834,35.606905,-77.431884
Greenville,NC,27858,35.567322,-77.357858
Greenville,NC,27858,35.580506,-77.3060069
Greenville,OH,45331,40.125971,-84.617221
Greenville,PA,16125,41.415526,-80.358976
Greenville,SC,29607,34.822652,-82.28115
Greenville,SC,29611,34.7887904,-82.4779256
Greenville,SC,29611,34.857024,-82.453847
Greenville,SC,29615,34.861739,-82.263765
Greenville,SC,29615,34.882808,-82.355327
Greenville,SC,29617,34.9118144,-82.4311012
Greenville,TX,75401,33.123379,-96.108249
Greenville,TX,75402,33.093639,-96.106315
Greenwood,AR,72936,35.220709,-94.296655
Greenwood,IN,46143,39.602599,-86.162378
Greenwood,IN,46143,39.633976,-86.08009
Greenwood,MS,38930,33.529992,-90.221433
Greenwood,SC,29646,34.198121,-82.132247
Greenwood,SC,29649,34.208194,-82.192386
Greer,SC,29650,34.9437665,-82.2478204
Greer,SC,29651,34.944079,-82.206339
Grenada,MS,38901,33.781612,-89.837398
Gresham,OR,97030,45.488794,-122.47217
Gresham,OR,97080,45.492782,-122.407839
Gretna,LA,70053,29.91345,-90.053832
Gretna,NE,68028,41.143376,-96.16569
Griffin,GA,30223,33.272396,-84.2967
Grimes,IA,50111,41.685697,-93.771302
Grinnell,IA,50112,41.721997,-92.730837
Groton,CT,6340,41.369862,-72.064954
Grove,OK,74344,36.5764748,-94.7656055
Grove City,OH,43123,39.87524,-83.042617
Grove City,PA,16127,41.168113,-80.114575
Grovetown,GA,30813,33.455443,-82.207958
Grovetown,GA,30813,33.481819,-82.195931
Grundy,VA,24614,37.27783,-82.102019
Guayama,PR,784,17.980275,-66.095501
Guilford,CT,6437,41.287176,-72.678888
Gulf Breeze,FL,32561,30.3654145,-87.168541
Gulf Breeze,FL,32563,30.387078,-87.065615
Gulf Shores,AL,36542,30.267427,-87.686198
Gulfport,MS,39503,30.423293,-89.088583
Gulfport,MS,39503,30.4513993,-89.1015216
Gulfport,MS,39507,30.399387,-89.019442
Gun Barrel City,TX,75156,32.333083,-96.135327
Gunnison,CO,81230,38.554562,-106.92541
Guntersville,AL,35976,34.299429,-86.27903
Gurnee,IL,60031,42.388201,-87.966567
Guthrie,OK,73044,35.862878,-97.42269
Guymon,OK,73942,36.70564,-101.487933
Hackettstown,NJ,7840,40.816326,-74.842097
Hadley,MA,1035,42.354638,-72.552232
Hagerstown,MD,21740,39.658092,-77.74905
Haines City,FL,33844,28.125998,-81.636723
Haleyville,AL,35565,34.2405233,-87.5987915
Halifax,MA,2338,41.99737,-70.846467
Hallandale Beach,FL,33009,25.987873,-80.123894
Hallettsville,TX,77964,29.45855,-96.938003
Hamburg,NY,14075,42.743219,-78.871643
Hamburg,PA,19526,40.564127,-76.012249
Hamden,CT,6514,41.3737,-72.918988
Hamilton,AL,35570,34.1196525,-87.9923238
Hamilton,NJ,8619,40.234176,-74.714854
Hamilton,NJ,8691,40.194754,-74.634226
Hamilton,OH,45011,39.388167,-84.508137
Hamilton,OH,45013,39.4258,-84.600469
Hammond,IN,46320,41.692659,-87.519668
Hammond,IN,46324,41.569186,-87.482627
Hammond,LA,70401,30.501713,-90.494371
Hammonton,NJ,8037,39.648492,-74.784866
Hampstead,MD,21074,39.636036,-76.869339
Hampstead,NC,28443,34.4479057,-77.564317
Hampton,VA,23666,37.036737,-76.40359
Hampton,VA,23666,37.040757,-76.379054
Hanford,CA,93230,36.32181,-119.676372
Hannibal,MO,63401,39.724869,-91.400117
Hanover,MA,2339,42.147708,-70.84266
Hanover,MD,21076,39.1557389,-76.7324745
Hanover,PA,17331,39.760843,-76.962003
Hanover,PA,17331,39.823698,-76.975137
Hanson,KY,42413,37.325152,-87.473071
Happy Valley,OR,97086,45.450517,-122.575448
Harahan,LA,70123,29.949489,-90.179499
Harborcreek,PA,16421,42.159486,-79.968079
Hardeeville,SC,29927,32.311011,-80.978396
Hardinsburg,KY,40143,37.7679224,-86.4434498
Harker Heights,TX,76548,31.0554173,-97.6560581
Harker Heights,TX,76548,31.0699848,-97.6744168
Harlan,KY,40831,36.817489,-83.318374
Harleysville,PA,19438,40.286715,-75.393081
Harlingen,TX,78552,26.180441,-97.716899
Harrisburg,IL,62946,37.7282525,-88.532915
Harrisburg,PA,17111,40.261651,-76.772903
Harrison,AR,72601,36.269042,-93.139074
Harrisonburg,VA,22801,38.433418,-78.910233
Harrisonburg,VA,22801,38.435223,-78.853029
Harrisonville,MO,64701,38.666161,-94.369474
Harrisville,UT,84404,41.269567,-111.97302
Harrodsburg,KY,40330,37.74252,-84.844408
Hartford,CT,6106,41.739791,-72.713347
Hartford,WI,53027,43.325168,-88.400548
Hartselle,AL,35640,34.45249,-86.948782
Hartsville,SC,29550,34.35764,-80.064158
Hartwell,GA,30643,34.349543,-82.904918
Harvard,IL,60033,42.406207,-88.611202
Harvey,LA,70058,29.861688,-90.045013
Harvey,LA,70058,29.8954086,-90.0572738
Hastings,MI,49058,42.647805,-85.32049
Hastings,MN,55033,44.74111,-92.89188
Hastings,NE,68901,40.624235,-98.385789
Hatfield,PA,19440,40.291173,-75.264154
Hatillo,PR,659,18.481318,-66.771308
Hattiesburg,MS,39402,31.308424,-89.321255
Hattiesburg,MS,39402,31.318476,-89.379432
Havelock,NC,28532,34.914088,-76.936528
Havre,MT,59501,48.554783,-109.737138
Hawthorne,CA,90250,33.900143,-118.362426
Hayden,ID,83835,47.749048,-116.793273
Haymarket,VA,20169,38.818625,-77.644932
Hays,KS,67601,38.903229,-99.32125
Hayward,WI,54843,46.018066,-91.470798
Hazard,KY,41701,37.29907,-83.213465
Hazel Green,AL,35750,34.945898,-86.574707
Hazle Township,PA,18202,40.986535,-76.01243
Hazlehurst,GA,31539,31.861931,-82.586586
Hazlehurst,MS,39083,31.871419,-90.409342
Heath,OH,43056,40.028409,-82.45211
Heber City,UT,84032,40.493779,-111.417486
Heber Spgs,AR,72543,35.507388,-92.032234
Helena,AL,35080,33.279523,-86.850848
Helena,MT,59601,46.593512,-111.990661
Helotes,TX,78023,29.559137,-98.678566
Hemet,CA,92543,33.745448,-116.979639
Hemet,CA,92545,33.72639,-117.009917
Hempstead,TX,77445,30.092263,-96.060383
Henderson,KY,42420,37.856106,-87.566169
Henderson,NC,27536,36.334769,-78.443618
Henderson,NV,89014,36.060452,-115.033216
Henderson,NV,89015,36.03882,-114.977327
Henderson,NV,89074,36.040504,-115.048277
Henderson,TX,75654,32.130652,-94.802126
Hendersonville,NC,28792,35.34947,-82.437565
Hendersonville,TN,37075,36.3228,-86.5953
Henrico,VA,23223,37.544562,-77.364604
Henryetta,OK,74437,35.438882,-95.974421
Hephzibah,GA,30815,33.3788255,-82.0730206
Hereford,TX,79045,34.839808,-102.40769
Herkimer,NY,13350,43.021424,-74.997828
Hermantown,MN,55811,46.817374,-92.18404
Hermiston,OR,97838,45.850649,-119.28648
Hermitage,PA,16148,41.249775,-80.452895
Hermitage,TN,37076,36.216541,-86.600684
Hernando,MS,38632,34.822373,-89.968726
Herriman,UT,84096,40.509163,-112.01151
Herrin,IL,62948,37.786284,-89.028816
Hesperia,CA,92345,34.424199,-117.370036
Hewitt,TX,76643,31.462226,-97.173681
Hialeah,FL,33012,25.866091,-80.291605
Hialeah,FL,33015,25.935789,-80.29576
Hialeah,FL,33016,25.858519,-80.3255
Hialeah Gardens,FL,33018,25.881034,-80.352333
Hiawatha,KS,66434,39.846387,-95.560036
Hibbing,MN,55746,47.397667,-92.960236
Hickory,NC,28601,35.752637,-81.289448
Hickory,NC,28602,35.703382,-81.286787
Hickory,NC,28602,35.719238,-81.347946
Hickory Creek,TX,75065,33.127829,-97.046313
Hidalgo,TX,78557,26.125271,-98.219485
Higginsville,MO,64037,39.077943,-93.736752
High Point,NC,27263,35.925361,-79.988961
High Point,NC,27265,35.994404,-80.028306
High Point,NC,27265,36.028815,-79.964859
High Ridge,MO,63049,38.462144,-90.521836
Highland,CA,92346,34.137744,-117.194853
Highland,IL,62249,38.7607786,-89.6842294
Highland Village,TX,75077,33.076904,-97.078114
Highlands Ranch,CO,80130,39.562394,-104.910747
Hillsboro,OH,45133,39.227839,-83.621758
Hillsboro,OR,97006,45.515722,-122.89821
Hillsboro,TX,76645,32.004274,-97.099919
Hillsborough,NC,27278,36.056242,-79.085802
Hilo,HI,96720,19.700194,-155.061954
Hilton Head Island,SC,29926,32.211604,-80.728675
Hinesville,GA,31313,31.796834,-81.605653
Hinesville,GA,31313,31.826074,-81.601756
Hinesville,GA,31313,31.851129,-81.579257
Hinsdale,NH,3451,42.813637,-72.530899
Hiram,GA,30141,33.890811,-84.758895
Hixson,TN,37343,35.153126,-85.245271
Hixson,TN,37343,35.187195,-85.189568
Hobart,OK,73651,35.017074,-99.10422
Hobbs,NM,88240,32.743608,-103.160521
Hodgkins,IL,60525,41.777587,-87.863305
Hohenwald,TN,38462,35.557306,-87.528658
Holdenville,OK,74848,35.088093,-96.381422
Holland,MI,49424,42.808393,-86.09084
Holland,OH,43528,41.6165048,-83.6993419
Holly Springs,GA,30115,34.185397,-84.50442
Holly Springs,MS,38635,34.7466316,-89.459003
Holly Springs,NC,27540,35.636674,-78.834705
Hollywood,FL,33023,26.00765,-80.204346
Holton,KS,66436,39.460818,-95.751037
Homestead,FL,33033,25.4840483,-80.4594941
Homestead,FL,33033,25.49688,-80.411158
Homewood,AL,35209,33.447061,-86.821007
Homewood,IL,60430,41.540572,-87.633528
Homosassa,FL,34446,28.762864,-82.549992
Hondo,TX,78861,29.343977,-99.126629
Honesdale,PA,18431,41.5572964,-75.2264437
Honolulu,HI,96813,21.30976,-157.862004
Honolulu,HI,96814,21.294726,-157.842947
Hood River,OR,97031,45.711725,-121.538552
Hooksett,NH,3106,43.0410838,-71.4745758
Hoover,AL,35216,33.393005,-86.799345
Hoover,AL,35244,33.361773,-86.824653
Hope,AR,71801,33.680812,-93.614678
Hope Mills,NC,28348,34.980094,-78.965033
Hope Mills,NC,28348,34.983867,-78.932576
Hopkinsville,KY,42240,36.83001,-87.46925
Hopkinsville,KY,42240,36.859343,-87.515454
Horizon City,TX,79928,31.679967,-106.200828
Horn Lake,MS,38637,34.961086,-90.032598
Horn Lake,MS,38637,34.964734,-90.063157
Hornell,NY,14843,42.346455,-77.669027
Horseheads,NY,14845,42.1568225,-76.8540245
Hot Springs,AR,71901,34.494271,-93.040121
Hot Springs,AR,71913,34.454531,-93.060534
Hot Springs,AR,71913,34.468587,-93.141385
Hot Springs,AR,71913,34.490929,-93.089251
Hot Springs Village,AR,71909,34.632394,-93.055836
Houghton,MI,49931,47.106535,-88.588321
Houghton Lake,MI,48629,44.295983,-84.679646
Houlton,ME,4730,46.143162,-67.842502
Houma,LA,70360,29.607776,-90.751843
Houma,LA,70363,29.584607,-90.692535
Houma,LA,70364,29.623667,-90.747928
Houston,MO,65483,37.313756,-91.962661
Houston,MS,38851,33.894702,-88.989563
Houston,TX,77007,29.7728201,-95.401322
Houston,TX,77015,29.7680323,-95.1771043
Houston,TX,77015,29.806025,-95.165177
Houston,TX,77022,29.829851,-95.377074
Houston,TX,77023,29.7162189,-95.3129339
Houston,TX,77037,29.918005,-95.415615
Houston,TX,77040,29.8539052,-95.5090766
Houston,TX,77043,29.7932,-95.564858
Houston,TX,77055,29.788756,-95.465145
Houston,TX,77063,29.735485,-95.511692
Houston,TX,77065,29.919899,-95.602222
Houston,TX,77068,29.998212,-95.484178
Houston,TX,77071,29.657006,-95.530023
Houston,TX,77072,29.687403,-95.586073
Houston,TX,77075,29.630807,-95.237624
Houston,TX,77077,29.733259,-95.591395
Houston,TX,77081,29.723052,-95.465008
Houston,TX,77082,29.721342,-95.647396
Houston,TX,77084,29.844264,-95.644835
Houston,TX,77086,29.913136,-95.486715
Houston,TX,77095,29.876999,-95.651738
Houston,TX,77096,29.674438,-95.495469
Houston,TX,77096,29.676877,-95.457502
Houston,TX,77099,29.679267,-95.561318
Howell,MI,48843,42.585496,-83.878052
Howell,NJ,7731,40.131079,-74.226408
Huber Heights,OH,45424,39.863295,-84.09821
Hudson,FL,34667,28.3406,-82.69604
Hudson,MA,1749,42.3729971,-71.558791
Hudson,NC,28638,35.859104,-81.483293
Hudson,NH,3051,42.7277,-71.4225
Hudson,NY,12534,42.278396,-73.750352
Hudson,WI,54016,44.959151,-92.72713
Hudson Oaks,TX,76087,32.755959,-97.709576
Hueytown,AL,35023,33.460574,-86.96832
Hugo,OK,74743,34.007244,-95.487949
Humacao,PR,791,18.141207,-65.807509
Humble,TX,77338,30.009001,-95.283487
Humble,TX,77346,29.9780086,-95.1931345
Humble,TX,77346,29.995677,-95.176444
Humble,TX,77396,29.93649,-95.252718
Humboldt,TN,38343,35.840815,-88.911782
Huntersville,NC,28078,35.370978,-80.827787
Huntingdon,PA,16652,40.490717,-78.044292
Huntingdon,TN,38344,35.997828,-88.43735
Huntington,IN,46750,40.898979,-85.51646
Huntington,WV,25705,38.407103,-82.37526
Huntington Beach,CA,92646,33.700181,-117.985512
Huntington Beach,CA,92648,33.6555402,-117.9870451
Huntley,IL,60142,42.151522,-88.428895
Huntsville,AL,35801,34.7030172,-86.5853922
Huntsville,AL,35802,34.647258,-86.541605
Huntsville,AL,35803,34.61586,-86.570681
Huntsville,AL,35805,34.713602,-86.624894
Huntsville,AL,35806,34.747008,-86.675822
Huntsville,AL,35810,34.750358,-86.633691
Huntsville,AL,35810,34.765195,-86.592346
Huntsville,AL,35811,34.820128,-86.49261
Huntsville,AR,72740,36.1128042,-93.7159682
Huntsville,TX,77340,30.713817,-95.570575
Huron,SD,57350,44.332969,-98.217288
Hurricane,UT,84737,37.172653,-113.364553
Hurricane,WV,25526,38.4411319,-82.0233958
Hurst,TX,76053,32.824755,-97.184848
Hurst,TX,76054,32.847239,-97.183744
Hutchinson,KS,67501,38.070078,-97.892255
Hutchinson,MN,55350,44.8717545,-94.3788858
Idabel,OK,74745,33.898037,-94.803528
Idaho Falls,ID,83402,43.492974,-112.05255
Independence,IA,50644,42.451983,-91.893435
Independence,KS,67301,37.222679,-95.74349
Independence,MO,64055,39.046101,-94.367039
Independence,MO,64055,39.058207,-94.413667
Indian Land,SC,29707,35.0107763,-80.8493703
Indian Trail,NC,28079,35.07882,-80.649849
Indiana,PA,15701,40.603414,-79.194569
Indianapolis,IN,46203,39.699603,-86.085461
Indianapolis,IN,46221,39.695578,-86.266483
Indianapolis,IN,46224,39.7783555,-86.2632921
Indianapolis,IN,46226,39.828107,-86.026029
Indianapolis,IN,46226,39.853829,-86.084443
Indianapolis,IN,46227,39.660399,-86.141957
Indianapolis,IN,46227,39.7110384,-86.1191817
Indianapolis,IN,46228,39.8533714,-86.1925101
Indianapolis,IN,46229,39.773528,-85.976523
Indianapolis,IN,46236,39.858339,-85.975906
Indianapolis,IN,46240,39.887629,-86.118971
Indianapolis,IN,46254,39.838107,-86.2441599
Indianapolis,IN,46268,39.909219,-86.2164311
Indianola,IA,50125,41.373432,-93.555772
Indianola,MS,38751,33.459493,-90.663215
Indio,CA,92203,33.7402813,-116.2292584
Inver Grove Heights,MN,55076,44.816501,-93.04036
Inverness,FL,34453,28.857661,-82.392881
Iola,KS,66749,37.942881,-95.41173
Ionia,MI,48846,42.94295,-85.07852
Iowa City,IA,52246,41.644112,-91.551193
Iowa Falls,IA,50126,42.502357,-93.260392
Irmo,SC,29063,34.127358,-81.220387
Iron Mountain,MI,49801,45.807363,-88.038011
Ironwood,MI,49938,46.470308,-90.127186
Irvine,CA,92606,33.698789,-117.835671
Irvine,CA,92618,33.6569282,-117.7417489
Irving,TX,75062,32.834833,-97.00636
Irving,TX,75063,32.920578,-96.967644
Isabela,PR,662,18.467815,-67.022492
Island City,OR,97850,45.335366,-118.058396
Islandia,NY,11749,40.800592,-73.178586
Ithaca,NY,14850,42.427633,-76.513975
Iuka,MS,38852,34.80428,-88.20453
Jacksboro,TN,37757,36.3361743,-84.1786969
Jackson,AL,36545,31.559638,-87.875509
Jackson,CA,95642,38.35793,-120.806192
Jackson,KY,41339,37.551571,-83.3603119
Jackson,MI,49202,42.249781,-84.4345706
Jackson,MO,63755,37.362068,-89.634627
Jackson,MS,39204,32.287958,-90.268476
Jackson,OH,45640,39.031686,-82.621747
Jackson,TN,38301,35.551073,-88.810955
Jackson,TN,38305,35.668347,-88.851516
Jacksonville,AL,36265,33.78822,-85.765028
Jacksonville,AR,72076,34.885098,-92.11255
Jacksonville,FL,32205,30.301618,-81.758379
Jacksonville,FL,32207,30.279227,-81.629059
Jacksonville,FL,32210,30.250666,-81.75302
Jacksonville,FL,32210,30.271548,-81.757048
Jacksonville,FL,32216,30.283485,-81.562702
Jacksonville,FL,32218,30.4503575,-81.7066673
Jacksonville,FL,32218,30.477426,-81.638694
Jacksonville,FL,32223,30.177358,-81.625278
Jacksonville,FL,32224,30.284726,-81.462613
Jacksonville,FL,32224,30.318421,-81.45051
Jacksonville,FL,32225,30.317168,-81.49188
Jacksonville,FL,32225,30.342276,-81.545443
Jacksonville,FL,32244,30.2073,-81.760143
Jacksonville,FL,32257,30.185352,-81.609265
Jacksonville,FL,32258,30.179113,-81.555936
Jacksonville,FL,32277,30.353664,-81.56233
Jacksonville,IL,62650,39.71992,-90.270971
Jacksonville,NC,28540,34.751438,-77.464564
Jacksonville,NC,28546,34.779932,-77.393137
Jacksonville,NC,28546,34.800804,-77.415686
Jacksonville,TX,75766,31.951409,-95.266334
Jamestown,ND,58401,46.880551,-98.723048
Jamestown,TN,38556,36.426135,-84.922087
Janesville,WI,53546,42.725543,-88.986576
Jasper,AL,35501,33.8429292,-87.254431
Jasper,GA,30143,34.476216,-84.460079
Jasper,IN,47546,38.427274,-86.934675
Jasper,TX,75951,30.908235,-94.015462
Jay,OK,74346,36.419232,-94.806089
Jefferson,WI,53549,42.987657,-88.807863
Jefferson City,MO,65101,38.54105,-92.118674
Jefferson City,MO,65109,38.580049,-92.219907
Jefferson City,TN,37760,36.128856,-83.467823
Jeffersontown,KY,40299,38.189687,-85.564273
Jena,LA,71342,31.6927546,-92.1404735
Jenks,OK,74037,36.003161,-95.978308
Jennings,LA,70546,30.244584,-92.659001
Jerome,ID,83338,42.694054,-114.515088
Jerseyville,IL,62052,39.103491,-90.318482
Jesup,GA,31545,31.615935,-81.871807
Johnsburg,IL,60050,42.368908,-88.271336
Johnson City,NY,13790,42.115453,-75.946979
Johnson City,TN,37604,36.308937,-82.403788
Johnson City,TN,37604,36.359431,-82.39888
Johnstown,PA,15904,40.276623,-78.845863
Joliet,IL,60435,41.51903,-88.14233
Jonesboro,AR,72401,35.81895,-90.685267
Jonesboro,AR,72401,35.825481,-90.671364
Jonesboro,AR,72404,35.802834,-90.698816
Jonesboro,AR,72404,35.815748,-90.734426
Jonesboro,LA,71251,32.227952,-92.705761
Jonesville,MI,49250,41.965241,-84.668345
Jonesville,VA,24263,36.725109,-83.103434
Joplin,MO,64801,37.082834,-94.496404
Joplin,MO,64801,37.087131,-94.545908
Joplin,MO,64801,37.143961,-94.513049
Joplin,MO,64804,37.063916,-94.533505
Joplin,MO,64804,37.072928,-94.472782
Junction City,KS,66441,39.017913,-96.86175
Junction City,KS,66441,39.018965,-96.820674
Jupiter,FL,33458,26.932745,-80.128314
Jurupa Valley,CA,92509,33.974237,-117.4768763
Kahului,HI,96732,20.87826,-156.454892
Kailua Kona,HI,96740,19.646268,-155.99092
Kalamazoo,MI,49009,42.293094,-85.6857848
Kalamazoo,MI,49048,42.33185,-85.510398
Kalispell,MT,59901,48.23175,-114.32617
Kankakee,IL,60901,41.080522,-87.86108
Kannapolis,NC,28083,35.46261,-80.594712
Kansas City,KS,66106,39.0747105,-94.6559528
Kansas City,KS,66109,39.132168,-94.830061
Kansas City,MO,64119,39.189841,-94.546561
Kansas City,MO,64133,39.044826,-94.442987
Kansas City,MO,64145,38.885051,-94.604949
Kansas City,MO,64154,39.250489,-94.654535
Kansas City,MO,64158,39.243164,-94.459216
Kapolei,HI,96707,21.3419649,-158.075334
Katy,TX,77449,29.789113,-95.72222
Katy,TX,77449,29.818473,-95.767104
Katy,TX,77449,29.860653,-95.716448
Katy,TX,77450,29.75862,-95.731061
Katy,TX,77494,29.74399,-95.793034
Katy,TX,77494,29.784042,-95.804025
Kaufman,TX,75142,32.5696796,-96.3075792
Kearney,NE,68847,40.726452,-99.081096
Kearny,NJ,7032,40.7477247,-74.1374739
Keene,NH,3431,42.924172,-72.286498
Keller,TX,76248,32.893352,-97.240005
Kemah,TX,77565,29.534829,-95.01829
Kenai,AK,99611,60.564195,-151.225131
Kendallville,IN,46755,41.447747,-85.224114
Kenedy,TX,78119,28.834532,-97.86426
Kenner,LA,70065,30.020403,-90.237608
Kenner,LA,70065,30.024946,-90.268094
Kennesaw,GA,30152,34.028451,-84.658026
Kennett,MO,63857,36.238808,-90.037563
Kennett Square,PA,19348,39.861153,-75.690187
Kennewick,WA,99337,46.182607,-119.17725
Kenosha,WI,53144,42.605454,-87.884157
Kent,OH,44240,41.097718,-81.38377
Kenton,OH,43326,40.657293,-83.583847
Keokuk,IA,52632,40.417702,-91.41065
Kerman,CA,93630,36.732679,-120.044129
Kernersville,NC,27284,36.08805,-80.10162
Kernersville,NC,27284,36.110139,-80.102348
Kerrville,TX,78028,30.06285,-99.167215
Ketchikan,AK,99901,55.375474,-131.720399
Kewanee,IL,61443,41.22115,-89.922169
Keyser,WV,26726,39.4013763,-79.0114629
Kilgore,TX,75662,32.393736,-94.865301
Killeen,TX,76542,31.073296,-97.707563
Killeen,TX,76542,31.089533,-97.729372
Killeen,TX,76549,31.083227,-97.787378
Killeen,TX,76549,31.108043,-97.800293
Kilmarnock,VA,22482,37.727119,-76.385093
Kimball,TN,37347,35.040483,-85.681551
King,NC,27021,36.264172,-80.365806
King George,VA,22485,38.351997,-77.057343
King Of Prussia,PA,19406,40.083475,-75.398584
Kingfisher,OK,73750,35.8287229,-97.9367127
Kingman,AZ,86409,35.222591,-114.032729
Kings Mountain,NC,28086,35.238287,-81.36242
Kingsport,TN,37660,36.557421,-82.603161
Kingsport,TN,37660,36.562992,-82.5678626
Kingsport,TN,37664,36.508678,-82.519136
Kingston,NY,12401,41.972503,-73.985511
Kingsville,TX,78363,27.489274,-97.853623
Kingwood,TX,77339,30.069345,-95.214509
Kingwood,WV,26537,39.486923,-79.733622
Kinston,NC,28504,35.264918,-77.646169
Kirksville,MO,63501,40.216711,-92.579522
Kirkwood,MO,63122,38.563071,-90.402996
Kissimmee,FL,34741,28.306616,-81.435215
Kissimmee,FL,34743,28.341764,-81.328774
Kissimmee,FL,34744,28.3438221,-81.3860316
Kissimmee,FL,34746,28.301788,-81.458955
Kissimmee,FL,34746,28.341551,-81.486378
Kissimmee,FL,34747,28.330027,-81.588346
Kissimmee,FL,34759,28.142528,-81.448001
Kittanning,PA,16201,40.814772,-79.54191
Kitty Hawk,NC,27949,36.09619,-75.720405
Klamath Falls,OR,97603,42.193388,-121.760604
Knightdale,NC,27545,35.79587,-78.491028
Knoxville,IA,50138,41.304907,-93.106041
Knoxville,TN,37912,36.005357,-84.0269
Knoxville,TN,37919,35.950968,-83.940335
Knoxville,TN,37920,35.911682,-83.843913
Knoxville,TN,37921,35.976279,-84.011022
Knoxville,TN,37923,35.926448,-84.062859
Knoxville,TN,37924,36.03112,-83.866358
Knoxville,TN,37934,35.90005,-84.147583
Knoxville,TN,37938,36.088885,-83.938663
Kodiak,AK,99615,57.811914,-152.365176
Kokomo,IN,46901,40.479321,-86.103923
Kosciusko,MS,39090,33.0549039,-89.5669509
Kyle,TX,78640,30.010137,-97.859209
La Crosse,WI,54601,43.766399,-91.213581
La Fayette,GA,30728,34.746325,-85.273411
La Grange,KY,40031,38.394631,-85.37258
La Grange,TX,78945,29.900833,-96.906301
La Habra,CA,90631,33.914719,-117.966157
La Habra,CA,90631,33.916159,-117.934851
La Junta,CO,81050,37.9981886,-103.5931748
La Marque,TX,77568,29.402077,-95.037535
La Mesa,CA,91942,32.7751045,-117.0077239
La Mesa,CA,91942,32.77773,-117.009055
La Mirada,CA,90638,33.918651,-118.013542
La Palma,CA,90623,33.845619,-118.038726
La Place,LA,70068,30.0747668,-90.4981931
La Plata,MD,20646,38.550627,-76.982551
La Porte,IN,46350,41.621692,-86.692544
La Porte,TX,77571,29.666925,-95.100045
La Puente,CA,91744,34.0471887,-117.9497913
La Quinta,CA,92253,33.703645,-116.281073
La Vergne,TN,37086,36.014739,-86.545588
La Vista,NE,68128,41.1776561,-96.0599474
Labelle,FL,33935,26.739973,-81.465424
Lacey,WA,98503,46.997056,-122.818677
Lacey,WA,98516,47.060493,-122.77375
Ladson,SC,29456,32.978876,-80.128208
Ladysmith,WI,54848,45.457347,-91.113992
Lafayette,CO,80026,40.006018,-105.105275
Lafayette,IN,47905,40.413229,-86.827302
Lafayette,IN,47909,40.364711,-86.859166
Lafayette,LA,70501,30.239559,-92.015743
Lafayette,LA,70506,30.187238,-92.078505
Lafayette,LA,70508,30.178017,-92.006138
Lafayette,TN,37083,36.519016,-86.038762
Lagrange,GA,30240,33.059904,-85.031485
Lagrange,GA,30241,33.0405288,-85.0122579
Laguna Niguel,CA,92677,33.563536,-117.713072
Lake Charles,LA,70601,30.212765,-93.218393
Lake Charles,LA,70601,30.268847,-93.179586
Lake Charles,LA,70605,30.195261,-93.245949
Lake Charles,LA,70607,30.195609,-93.17622
Lake Charles,LA,70611,30.3021097,-93.1993259
Lake City,FL,32055,30.181352,-82.677537
Lake City,SC,29560,33.892389,-79.751262
Lake Elsinore,CA,92532,33.662186,-117.294445
Lake Geneva,WI,53147,42.591163,-88.411543
Lake Havasu City,AZ,86404,34.571629,-114.368101
Lake Jackson,TX,77566,29.045462,-95.459088
Lake Mary,FL,32746,28.784512,-81.304091
Lake Park,FL,33403,26.795173,-80.088336
Lake Saint Louis,MO,63367,38.772401,-90.786605
Lake Wales,FL,33898,27.891997,-81.552969
Lake Worth,FL,33449,26.6185102,-80.2070155
Lake Worth,FL,33463,26.574994,-80.11455
Lake Worth,FL,33467,26.587507,-80.148482
Lake Worth,TX,76135,32.812396,-97.426058
Lake Wylie,SC,29710,35.121701,-81.085064
Lake Zurich,IL,60047,42.186054,-88.087621
Lakeland,FL,33803,28.000741,-81.959531
Lakeland,FL,33809,28.119414,-81.977138
Lakeside,CO,80212,39.779213,-105.061212
Lakeville,MN,55044,44.6504,-93.297113
Lakewood,CA,90712,33.830338,-118.15857
Lakewood,CO,80214,39.742724,-105.079342
Lakewood,CO,80226,39.722231,-105.080398
Lakewood,NY,14750,42.097,-79.299923
Lakewood,WA,98499,47.193924,-122.516962
Lamar,CO,81052,38.086806,-102.602019
Lamar,MO,64759,37.497069,-94.302316
Lampasas,TX,76550,31.061671,-98.158927
Lancaster,CA,93535,34.692518,-118.097675
Lancaster,CA,93536,34.693755,-118.174112
Lancaster,NY,14043,42.882479,-78.694009
Lancaster,OH,43130,39.740608,-82.642731
Lancaster,PA,17601,40.0736738,-76.3250972
Lancaster,PA,17602,40.029557,-76.241112
Lancaster,SC,29720,34.7342509,-80.7847582
Lancaster,TX,75146,32.5907686,-96.78663
Lancaster,TX,75146,32.59215,-96.819145
Landover Hills,MD,20784,38.942875,-76.907956
Lanoka Harbor,NJ,8734,39.85866,-74.179277
Lansing,IL,60438,41.574788,-87.555088
Lansing,MI,48912,42.765823,-84.521705
Lansing,MI,48917,42.738214,-84.675623
Lapeer,MI,48446,43.053792,-83.299925
Laramie,WY,82070,41.301639,-105.540476
Laredo,TX,78041,27.552401,-99.506573
Laredo,TX,78043,27.518352,-99.451706
Laredo,TX,78045,27.610824,-99.462361
Laredo,TX,78046,27.453311,-99.474166
Largo,FL,33760,27.912974,-82.727723
Largo,FL,33770,27.926481,-82.785842
Largo,FL,33771,27.893098,-82.764218
Largo,FL,33774,27.881763,-82.830042
Las Cruces,NM,88001,32.314746,-106.749837
Las Cruces,NM,88001,32.328121,-106.721759
Las Cruces,NM,88005,32.288437,-106.785494
Las Cruces,NM,88011,32.360252,-106.74598
Las Vegas,NM,87701,35.619645,-105.227492
Las Vegas,NV,89102,36.156329,-115.201607
Las Vegas,NV,89103,36.1231761,-115.24648
Las Vegas,NV,89104,36.156162,-115.079671
Las Vegas,NV,89108,36.194611,-115.226021
Las Vegas,NV,89108,36.214796,-115.245037
Las Vegas,NV,89110,36.165098,-115.063287
Las Vegas,NV,89113,36.065063,-115.24894
Las Vegas,NV,89119,36.080571,-115.122253
Las Vegas,NV,89121,36.0979902,-115.1082931
Las Vegas,NV,89122,36.108534,-115.062957
Las Vegas,NV,89123,36.022978,-115.124252
Las Vegas,NV,89123,36.05499,-115.119993
Las Vegas,NV,89129,36.220597,-115.324377
Las Vegas,NV,89130,36.24055,-115.224029
Las Vegas,NV,89131,36.277766,-115.20307
Las Vegas,NV,89146,36.160236,-115.231808
Las Vegas,NV,89148,36.0940504,-115.2938201
Las Vegas,NV,89149,36.271563,-115.271015
Las Vegas,NV,89156,36.196501,-115.029009
Las Vegas,NV,89178,36.020391,-115.245431
Las Vegas,NV,89183,36.014609,-115.1526
Latham,NY,12110,42.746495,-73.764381
Latrobe,PA,15650,40.282491,-79.383027
Lauderdale Lakes,FL,33313,26.162388,-80.20542
Laurel,MD,20724,39.0986317,-76.8024694
Laurel,MS,39440,31.709574,-89.146654
Laurel,MT,59044,45.667525,-108.7591
Laurens,SC,29360,34.489563,-81.983397
Laurinburg,NC,28352,34.761765,-79.484374
Lavale,MD,21502,39.624903,-78.835052
Lawrence,KS,66046,38.923672,-95.256869
Lawrence,KS,66049,38.973408,-95.309766
Lawrenceburg,KY,40342,38.035243,-84.909083
Lawrenceburg,TN,38464,35.27339,-87.314905
Lawrenceville,GA,30044,33.922428,-84.085591
Lawrenceville,GA,30044,33.936752,-84.025181
Lawrenceville,GA,30046,33.971139,-83.996583
Lawrenceville,IL,62439,38.725327,-87.700208
Lawton,OK,73505,34.595819,-98.438776
Lawton,OK,73505,34.618772,-98.42438
Lawton,OK,73505,34.632451,-98.471362
Layton,UT,84040,41.099882,-111.940477
Layton,UT,84041,41.06831,-111.979569
Le Mars,IA,51031,42.781897,-96.187601
League City,TX,77573,29.470187,-95.0898
League City,TX,77573,29.4990441,-95.1255913
Leavenworth,KS,66048,39.268764,-94.930386
Lebanon,IN,46052,40.071845,-86.479887
Lebanon,KY,40033,37.553369,-85.283895
Lebanon,MO,65536,37.663493,-92.645849
Lebanon,OH,45036,39.456055,-84.172455
Lebanon,OR,97355,44.516753,-122.900683
Lebanon,PA,17046,40.349975,-76.390243
Lebanon,TN,37087,36.191829,-86.290925
Lebanon,VA,24266,36.900374,-82.043985
Lecanto,FL,34461,28.891252,-82.489485
Ledgewood,NJ,7852,40.873613,-74.653315
Leeds,AL,35094,33.562105,-86.518619
Lees Summit,MO,64082,38.856651,-94.380671
Lees Summit,MO,64086,38.930632,-94.363615
Leesburg,FL,34748,28.842541,-81.898976
Leesburg,VA,20176,39.117098,-77.54043
Leesville,LA,71446,31.118636,-93.274624
Leesville,SC,29070,33.917546,-81.529227
Lehigh Acres,FL,33971,26.614759,-81.667127
Lehighton,PA,18235,40.8096416,-75.7382802
Leicester,MA,1524,42.251179,-71.935136
Leitchfield,KY,42754,37.484701,-86.265657
Leland,NC,28451,34.209879,-78.023068
Lenoir,NC,28645,35.928486,-81.530125
Lenoir City,TN,37771,35.822085,-84.26463
Leominster,MA,1453,42.491861,-71.729962
Levelland,TX,79336,33.596282,-102.361308
Levittown,NY,11756,40.726434,-73.512899
Levittown,PA,19055,40.141962,-74.822463
Lewis Center,OH,43035,40.16509,-83.015842
Lewisburg,PA,17837,40.991619,-76.878945
Lewisburg,TN,37091,35.47119,-86.791446
Lewisburg,WV,24901,37.811906,-80.429277
Lewistown,PA,17044,40.581333,-77.611455
Lewisville,TX,75067,33.000502,-96.990945
Lewisville,TX,75067,33.047228,-97.013954
Lewisville,TX,75077,33.072889,-97.038182
Lexington,KY,40503,37.979363,-84.531084
Lexington,KY,40509,38.037703,-84.422031
Lexington,KY,40511,38.069978,-84.480507
Lexington,KY,40513,38.004763,-84.571831
Lexington,KY,40515,37.966733,-84.500725
Lexington,NC,27292,35.794678,-80.259545
Lexington,NC,27295,35.8343351,-80.2758531
Lexington,NE,68850,40.744902,-99.742518
Lexington,SC,29072,33.998141,-81.224767
Lexington,SC,29073,33.910686,-81.230185
Lexington,TN,38351,35.654492,-88.411623
Lexington,VA,24450,37.805879,-79.409875
Liberal,KS,67901,37.045555,-100.94108
Liberal,KS,67901,37.066998,-100.916934
Liberty,TX,77575,30.075608,-94.775305
Lihue,HI,96766,21.982346,-159.365025
Lilburn,GA,30047,33.90295,-84.110453
Lima,OH,45804,40.728865,-84.0598
Lima,OH,45805,40.7525512,-84.152321
Lincoln,CA,95648,38.888601,-121.291797
Lincoln,IL,62656,40.154263,-89.398031
Lincoln,ME,4457,45.35585,-68.524661
Lincoln,NE,68507,40.848885,-96.601788
Lincoln,NE,68512,40.729465,-96.685039
Lincoln,NE,68521,40.858346,-96.677746
Lincoln,NE,68526,40.736437,-96.598969
Lincolnton,NC,28092,35.483343,-81.240857
Lindale,TX,75771,32.474668,-95.387691
Linden,NJ,7036,40.612665,-74.24755
Lindon,UT,84042,40.348491,-111.731799
Lindsay,OK,73052,34.83499,-97.597457
Linton,IN,47441,39.036083,-87.130418
Lisbon,CT,6351,41.583495,-71.98949
Litchfield,IL,62056,39.185505,-89.668379
Litchfield,MN,55355,45.1210736,-94.4907311
Lithia Springs,GA,30122,33.7745093,-84.6010619
Lithonia,GA,30038,33.694644,-84.084863
Lithonia,GA,30038,33.700533,-84.166977
Little Egg Harbor,NJ,8087,39.603504,-74.363391
Little Falls,MN,56345,45.980168,-94.337543
Little Rock,AR,72205,34.72831,-92.397677
Little Rock,AR,72209,34.667147,-92.377089
Little Rock,AR,72211,34.748243,-92.410566
Little Rock,AR,72223,34.809468,-92.485983
Littleton,CO,80123,39.636245,-105.083434
Littleton,CO,80127,39.608122,-105.150934
Littleton,NH,3561,44.304654,-71.798527
Live Oak,FL,32060,30.324465,-82.963965
Livermore,CA,94551,37.699249,-121.767991
Liverpool,NY,13090,43.189246,-76.242531
Livingston,TX,77351,30.716174,-94.954755
Livonia,MI,48150,42.36642,-83.336402
Livonia,MI,48152,42.430649,-83.339865
Lockhart,TX,78644,29.85698,-97.665477
Lockport,IL,60441,41.5922214,-88.0228929
Lockport,NY,14094,43.147314,-78.694226
Locust,NC,28097,35.25656,-80.456989
Locust Grove,GA,30248,33.358138,-84.120553
Locust Grove,OK,74352,36.198695,-95.158237
Locust Grove,VA,22508,38.371732,-77.767965
Lodi,CA,95242,38.112985,-121.303278
Logan,OH,43138,39.538335,-82.43698
Logan,UT,84321,41.712169,-111.835983
Logan,WV,25601,37.860092,-82.044407
Logansport,IN,46947,40.761249,-86.311815
Loganville,GA,30052,33.840982,-83.911143
Loma Linda,CA,92354,34.047122,-117.242268
Lompoc,CA,93436,34.662934,-120.465113
London,KY,40741,37.11412,-84.091669
London,OH,43140,39.908987,-83.42934
Long Beach,CA,90805,33.86142,-118.147723
Long Beach,CA,90808,33.829326,-118.090624
Longmont,CO,80504,40.158118,-105.048415
Longmont,CO,80504,40.205184,-105.09877
Longview,TX,75604,32.531894,-94.78483
Longview,TX,75604,32.555284,-94.79772
Longview,TX,75605,32.542098,-94.727504
Longview,WA,98632,46.119315,-122.93007
Longview,WA,98632,46.153058,-122.983947
Lonoke,AR,72086,34.805224,-91.894037
Lorain,OH,44053,41.430204,-82.208011
Los Banos,CA,93635,37.05397,-120.878932
Los Fresnos,TX,78566,26.074583,-97.491285
Los Lunas,NM,87031,34.817298,-106.763155
Louisa,KY,41230,38.102517,-82.624121
Louisburg,NC,27549,36.08324,-78.320606
Louisville,KY,40207,38.253729,-85.644231
Louisville,KY,40214,38.128945,-85.779878
Louisville,KY,40216,38.157362,-85.836005
Louisville,KY,40216,38.171432,-85.870209
Louisville,KY,40218,38.199176,-85.667473
Louisville,KY,40219,38.135649,-85.671851
Louisville,KY,40229,38.088497,-85.66386
Louisville,KY,40241,38.300079,-85.545768
Louisville,KY,40272,38.102544,-85.866119
Louisville,KY,40291,38.142543,-85.586846
Louisville,MS,39339,33.122255,-89.08271
Lovejoy,GA,30250,33.4425589,-84.3256768
Loveland,CO,80537,40.404373,-105.046623
Loveland,CO,80538,40.456889,-105.080953
Lowville,NY,13367,43.7736414,-75.478088
Lubbock,TX,79415,33.590452,-101.858844
Lubbock,TX,79416,33.589118,-101.93805
Lubbock,TX,79423,33.489339,-101.901918
Lubbock,TX,79423,33.504484,-101.868925
Lubbock,TX,79423,33.527803,-101.903621
Lubbock,TX,79424,33.5162977,-101.9553076
Lucas,TX,75002,33.088533,-96.618387
Lucedale,MS,39452,30.901828,-88.595144
Ludington,MI,49431,43.957893,-86.40034
Lufkin,TX,75904,31.299557,-94.731474
Lumberton,NC,28358,34.623515,-79.042438
Lumberton,NC,28358,34.664064,-79.005857
Lumberton,NJ,8048,39.977436,-74.768533
Lumberton,TX,77657,30.258479,-94.216602
Lunenburg,MA,1462,42.595005,-71.759878
