,street_address,city,state,zip_code,longitude,latitude,family_id
0,750 Angela Avenue,Bastrop,LA,71220,-91.961948,32.811043,NtBpCYZAAf
1,24163 Robert Expressway,Shreveport,LA,71129,-93.971795,32.417261,wAlLGSViRb
2,4525 Brian Trafficway Suite 727,Jena,LA,71342,-92.111126,31.711846,ZyvoVEfkmV
3,3037 Farley Curve,Houma,LA,70360,-90.874256,29.677032,CoGEPThfYx
4,4986 Garcia Meadows Apt. 915,New Orleans,LA,70114,-90.067449,29.97419,RynHjrjqBA
5,1004 Dylan Courts Apt. 437,Springhill,LA,71075,-93.547824,33.060881,QZwojCrCvC
6,617 Johnson Island Suite 238,Harvey,LA,70058,-90.086529,29.954891,YwQuYvdJFD
7,1052 Potter Station,Harvey,LA,70058,-90.135629,29.938115,WglSgiNsLR
8,43803 Donna Mission Suite 055,Prairieville,LA,70769,-90.916067,30.328331,PXlxLjgUKS
9,63025 Alexandra Course Apt. 352,Jennings,LA,70546,-92.720959,30.217149,ElUewWUTBS
10,01727 Michael Court,Crowley,LA,70526,-92.470317,30.240446,SyvljaxAHe
11,874 Kevin Court,Alexandria,LA,71301,-92.557105,31.381181,JFTXHgERSH
12,76326 Dominique Walk Apt. 439,Alexandria,LA,71301,-92.511757,31.386881,RDQYGLsSYK
13,08522 Darin Forges Apt. 644,New Orleans,LA,70128,-90.064304,30.069827,ePlKEnSPeg
14,20569 Torres Ville Suite 704,Ruston,LA,71270,-92.675585,32.581918,CCUxIbDJwd
15,753 Hart Prairie,Crowley,LA,70526,-92.476405,30.277705,mHATAMEJeb
16,1884 Russell Freeway,Baton Rouge,LA,70818,-91.06974,30.554662,aKmThrUDni
17,8695 Santos Green,Slidell,LA,70460,-89.839091,30.346295,fOnTYUfumE
18,2816 Miller Crest,Alexandria,LA,71303,-92.557196,31.374513,jxZnJCwzSD
19,472 Miller Crossing,Alexandria,LA,71301,-92.55586,31.3114,idPUrTvkQD
20,4642 Cheryl Grove,Vidalia,LA,71373,-91.51973,31.654759,YxmAWUnwea
21,873 Roberts Walk,La Place,LA,70068,-90.58968,30.136658,BEYgMioTIR
22,41466 Cory Villages,Denham Springs,LA,70726,-90.989162,30.465887,IBabQUdTLo
23,030 Burns Loaf Suite 301,Baton Rouge,LA,70816,-91.15638,30.441523,RWmncpuClm
24,912 Hancock Wells,Oak Grove,LA,71263,-91.428784,32.932839,WLvLKDeKaW
25,28704 Smith Plaza Suite 747,Raceland,LA,70394,-90.622939,29.741683,EKGRvbvsln
26,9289 Christopher Loaf Apt. 491,Baton Rouge,LA,70817,-91.057043,30.45026,ZyKwibpdCm
27,9990 Morgan Via Apt. 696,Shreveport,LA,71129,-93.942462,32.483677,MjMhtDNmRY
28,06882 Nelson Falls Apt. 540,Shreveport,LA,71106,-93.83593,32.481254,OHudnQrbWV
29,104 Smith Landing Apt. 950,Thibodaux,LA,70301,-90.885128,29.865909,ODjaiLBcfV
30,16739 William Manor,Bossier City,LA,71111,-93.628616,32.621042,ycGnFcomPi
31,400 Joshua Bypass,Jena,LA,71342,-92.152029,31.767917,ADOTmCCmcf
32,6456 Roy Grove,Deridder,LA,70634,-93.310602,30.921918,AoYGyTxkhV
33,978 Wilson Hill,Baton Rouge,LA,70818,-91.173659,30.522274,fTTpmUAKTg
34,8421 Matthew Ferry Suite 378,Ville Platte,LA,70586,-92.317744,30.764585,xWyYzWIHXg
35,72821 Martin Views,Shreveport,LA,71105,-93.745193,32.549525,wDHmEBliCm
36,4442 Julie Islands Suite 734,Lake Charles,LA,70605,-93.249248,30.256965,FlJcUifPuK
37,9029 Hall Curve,Opelousas,LA,70570,-92.122019,30.518712,epxwGSGPZE
38,5691 Richard Fords Apt. 693,Slidell,LA,70461,-89.767851,30.32091,KXahzvhsZi
39,350 Cheryl Views Suite 897,Denham Springs,LA,70726,-91.022994,30.540371,hnkyoHbPFT
40,258 Calvin Stream,Kenner,LA,70065,-90.31632,30.076394,SRlomsZVua
41,34062 Sandoval Turnpike,Lake Charles,LA,70607,-93.239132,30.25143,PVHVlcBURr
42,591 Caroline Station Apt. 761,Prairieville,LA,70769,-91.08573,30.365765,fbElFargCr
43,26113 Johnson Pass Suite 187,Mansfield,LA,71052,-93.728351,32.121269,zSjrutZKsc
44,54829 Lamb Overpass,Slidell,LA,70460,-89.832906,30.340702,luMrJsOyEH
45,0430 Erin Squares Suite 449,Rayville,LA,71269,-91.885223,32.573388,FJRJvpKNHd
46,28152 Wilson Pines,Shreveport,LA,71105,-93.769274,32.480199,iQmpjuCZdF
47,404 Bonnie Drive,Chalmette,LA,70043,-90.062693,30.067829,oIDCaEJhsK
48,3643 Eugene Coves,Slidell,LA,70461,-89.769374,30.325148,kpThXBIGGD
49,41535 Patrick Square Apt. 692,Baton Rouge,LA,70818,-91.021234,30.54834,bsNdvacrwD
50,53165 Macias Roads Apt. 967,Kenner,LA,70065,-90.231025,30.031303,fhFaUHvTZp
51,460 Evans Villages Apt. 372,Metairie,LA,70003,-90.239595,30.042606,nVptUhLhOX
52,3079 Russell Road,Mandeville,LA,70448,-90.140029,30.440933,ecPxVLjaWS
53,435 Daniel Trace,New Orleans,LA,70114,-90.084887,29.929521,POStbnTDsU
54,7096 Watson Crossroad,Shreveport,LA,71129,-93.966327,32.443981,pEjpwLNDlC
55,242 Pruitt Manor Apt. 601,Slidell,LA,70458,-89.829374,30.310539,yhYcTVMbvW
56,91982 Jesse Mountains Suite 806,Baton Rouge,LA,70815,-91.133713,30.54576,fIEXsfalih
57,607 Dakota Oval Suite 063,Lake Charles,LA,70605,-93.239196,30.281157,LptYBtLvsX
58,37468 Sarah Meadows,Sulphur,LA,70663,-93.318096,30.231904,PuxYjJntDe
59,2750 Paul Mountains,Houma,LA,70364,-90.716319,29.621645,XiQMywWOlx
60,381 Hoffman Lakes,Gretna,LA,70053,-90.170368,29.978522,SmkjITlvGK
61,622 Charles Cape Apt. 210,Baton Rouge,LA,70817,-91.08667,30.488979,LnThUccAwV
62,00636 Jones Branch,Pineville,LA,71360,-92.447722,31.455462,WEcSgckbFp
63,1179 Kevin Trace Apt. 714,Mandeville,LA,70448,-90.133179,30.417087,WndUYQdcuc
64,5658 Jeffrey Curve Suite 561,Baton Rouge,LA,70816,-91.171657,30.472086,TvRYmOYOAK
65,56752 Fields Mount,Mandeville,LA,70448,-90.138463,30.412533,mgpPDIwVOC
66,655 Fox Throughway,Bossier City,LA,71111,-93.72361,32.56091,ZDpcttusbe
67,5245 Shawn Courts,Abbeville,LA,70510,-92.164555,30.023817,mGAKaLmrFl
68,5053 Barry Shoal Apt. 122,New Orleans,LA,70130,-90.151275,29.966599,IjjPThJngL
69,274 John Well,Ruston,LA,71270,-92.685214,32.536233,QtSzCXzzpg
70,45040 Long Mission Suite 565,Houma,LA,70364,-90.738206,29.684423,LxKJsCFuJh
71,9292 James Avenue Suite 548,Shreveport,LA,71118,-93.811125,32.458547,mVtaYLLfcv
72,9793 Keller Terrace,Raceland,LA,70394,-90.610445,29.789912,onbrbGEHBp
73,51880 Murphy Locks,Ponchatoula,LA,70454,-90.5336,30.432604,ezbuPZSnKV
74,77307 Ruiz Station,Opelousas,LA,70570,-92.181829,30.539875,VILcyRTpVx
75,01135 William Manor Suite 580,Jena,LA,71342,-92.189156,31.73289,MOMdRpQlLy
76,814 Derek Extensions,New Iberia,LA,70563,-91.81205,30.064851,lcQeXZhESy
77,1565 Michael Mountains Apt. 570,Thibodaux,LA,70301,-90.810954,29.839272,eqsXchLcSs
78,663 Katherine Camp,Broussard,LA,70518,-91.969902,30.136073,opgOAoaMNc
79,29261 Gabrielle Ramp,Shreveport,LA,71105,-93.76545,32.577539,SCuYMYCNor
80,672 Michelle Pass,Bossier City,LA,71111,-93.746769,32.519537,VIQDcrAIoB
81,635 Michael Haven Apt. 155,Harvey,LA,70058,-90.164668,29.942743,ozzoGBPJzQ
82,70168 Everett Roads Apt. 866,Houma,LA,70360,-90.869699,29.636592,vcVXXFwFAa
83,912 Stephens Highway,Many,LA,71449,-93.557178,31.630176,PlCChxUUDr
84,38298 Courtney Valleys,Jena,LA,71342,-92.142817,31.762053,YrGjJIBIqL
85,6441 Randall Creek,La Place,LA,70068,-90.570134,30.128063,GuHZRFjZba
86,3567 Davidson Trail Suite 231,Lake Charles,LA,70607,-93.21842,30.250286,npkBqPjjPz
87,926 Daniel Station,Sulphur,LA,70663,-93.338393,30.287544,CBNXlUughC
88,413 Jason Crest,Ponchatoula,LA,70454,-90.521693,30.461449,HRjDKwbFiZ
89,5435 Gibson Square,Hammond,LA,70401,-90.541548,30.575395,ezXUhikgkm
90,664 Pearson Villages Suite 626,Covington,LA,70433,-90.178201,30.432114,NKcJUaJbRB
91,67646 David View Apt. 151,Baton Rouge,LA,70808,-91.184561,30.439515,ezogkuzTFF
92,85837 Melissa Ridges,Walker,LA,70785,-90.91337,30.586133,tiRTPEEGdg
93,565 Peters View Apt. 113,Pineville,LA,71360,-92.443594,31.473427,YUkLnELfAb
94,744 Savannah Key Apt. 012,Morgan City,LA,70380,-91.272748,29.734018,pByidZbQpq
95,436 Stacy Centers,Denham Springs,LA,70726,-90.971583,30.473171,dHZywZuzmE
96,308 Reginald Brooks,Ponchatoula,LA,70454,-90.53274,30.48103,LIXMAreZOl
97,5640 Alexander Knoll Apt. 065,Meraux,LA,70075,-89.986267,29.984206,eUnJgbnpUw
98,69269 Stanley Mountains Suite 864,Baton Rouge,LA,70816,-91.06914,30.485086,ErvVklLDOU
99,249 Garza Greens Suite 340,Amite,LA,70422,-90.584229,30.775076,MntnqKIfcD
100,471 Ray Hollow Apt. 570,Catonsville,MD,21228,-76.874527,39.378236,TMqfRTKyLe
101,051 Angelica Trafficway,North East,MD,21901,-76.025476,39.617192,dWELtfwVCo
102,43047 Avery Trafficway Apt. 124,Glen Burnie,MD,21060,-76.669363,39.287134,AboHonnuCA
103,7893 Tara Station Apt. 913,Fallston,MD,21047,-76.469885,39.586035,sJBNbRTkyF
104,941 Wright Plaza,Hagerstown,MD,21740,-77.764266,39.77885,TZJcsdQpSj
105,51671 Tracy Falls,Pasadena,MD,21122,-76.652839,39.16057,qftwcPdiVa
106,580 Cooper Ramp Suite 902,Hampstead,MD,21074,-76.98246,39.654335,vOEmeLSyqa
107,60727 Perry Curve Suite 296,Oakland,MD,21550,-79.43215,39.44403,MxOUJnyAgK
108,398 Jonathan Pass,Westminster,MD,21157,-77.054442,39.658593,zOtQzSpbea
109,3168 Jacob Wells,Prince Frederick,MD,20678,-76.613017,38.566235,quKdaRGbQM
110,37471 Bryan Cape Suite 159,Prince Frederick,MD,20678,-76.632477,38.557699,EJjXRvwdFO
111,16057 Hannah Meadows Apt. 830,Randallstown,MD,21133,-76.823876,39.450452,gArEZAvYBO
112,845 Rogers Shores,Lavale,MD,21502,-78.887097,39.632137,tJSwNGoPIB
113,440 Steven Station,Bowie,MD,20716,-76.763669,38.984227,JihlpbryKx
114,052 Long Drives,Nottingham,MD,21236,-76.538067,39.46673,nixOHhtoRb
115,38445 Lewis Trail,Oakland,MD,21550,-79.47984,39.41133,zmJusjrlmK
116,5738 Robert Rest Apt. 810,Baltimore,MD,21220,-76.455941,39.316975,SMCUrWjXqg
117,381 Joel Plain,North East,MD,21901,-76.086928,39.689669,pvRyyTOcmf
118,6684 Jeffrey Falls,Denton,MD,21629,-75.873329,38.989343,rgUHNvkpEa
119,661 Lori Spring Suite 850,Salisbury,MD,21801,-75.627576,38.43246,lJSuhJuhRG
120,475 Hector Square,Lavale,MD,21502,-78.825732,39.611883,JwNLrjlafE
121,87917 Sanders Lodge Apt. 576,Prince Frederick,MD,20678,-76.621495,38.579724,ulfTTTLOad
122,2689 Powell Expressway,Baltimore,MD,21237,-76.565432,39.349843,wtPACpxahJ
123,42992 Roberts Inlet Suite 011,Glen Burnie,MD,21060,-76.64099,39.242366,wVyLjhlqPy
124,818 Moore Port Apt. 891,Salisbury,MD,21801,-75.610726,38.434459,yqoxnmQZiU
125,052 Zachary Bypass,California,MD,20619,-76.562118,38.347942,pKYsuhEicp
126,715 David Club,Mount Airy,MD,21771,-77.21324,39.489072,SnMdbztFLj
127,77632 James Green Apt. 865,Randallstown,MD,21133,-76.858846,39.46097,wdvWxgDAmH
128,1457 White Rapids Apt. 802,Cockeysville,MD,21030,-76.653255,39.557429,hvnZNaVwkW
129,133 Moore Station,Landover Hills,MD,20784,-76.969965,38.988283,DnkZkvRbCb
130,306 James Ville Apt. 018,La Plata,MD,20646,-77.024903,38.68663,uXTzAsuqZB
131,740 Molina Causeway,Abingdon,MD,21009,-76.320302,39.559552,aNBRpZNSlp
132,115 Matthew Key,Columbia,MD,21045,-76.875672,39.249343,VWRkpewjWN
133,535 Cynthia Forges,California,MD,20619,-76.543949,38.389411,yPgqylQxox
134,328 Teresa Ways Suite 108,Hanover,MD,21076,-76.72149,39.234802,EDAldlHPWX
135,8243 Cheryl Isle,Abingdon,MD,21009,-76.331974,39.529886,LnjUzbnNgt
136,2967 Davis Fort Apt. 454,Towson,MD,21286,-76.679564,39.427342,PGXHrKThdH
137,2117 Bell Drives,Arbutus,MD,21227,-76.719837,39.289922,CckBatdQKi
138,5879 Angel Lodge Apt. 700,Pasadena,MD,21122,-76.654616,39.137787,RRoKnXOcVX
139,35700 Lawson Ridges Apt. 670,Hagerstown,MD,21740,-77.726917,39.769802,KvlYYkAbKb
140,65375 Leslie View,Columbia,MD,21045,-76.83188,39.241304,qINLFOCFAO
141,9280 Mathews Islands,Cambridge,MD,21613,-76.158843,38.614705,UgbqKibbGJ
142,51649 Samantha Hills,Prince Frederick,MD,20678,-76.683265,38.548504,JaIUqfQHvA
143,32761 Bowers Keys Apt. 989,Columbia,MD,21045,-76.851035,39.244678,pcSsMuOaQK
144,822 Brad Cliffs Suite 852,Lavale,MD,21502,-78.884254,39.687674,XXjFliQhRk
145,7739 Sanchez Isle,Randallstown,MD,21133,-76.874976,39.461855,TTiZwMSKmU
146,18996 Becky Centers,Westminster,MD,21157,-77.037723,39.616675,kbTXMoizjX
147,607 Michael Flat,Pasadena,MD,21122,-76.620801,39.157904,PHUQzRKPoV
148,749 Shaw Ford,Lavale,MD,21502,-78.833586,39.683234,BXGaQNvvkv
149,018 Paul Drive Apt. 652,Severn,MD,21144,-76.686927,39.14282,EYIQBzKNYf
150,5213 Nathan Divide,Sykesville,MD,21784,-76.969296,39.454982,uFIiVCbbeJ
151,205 Lane Avenue,Hampstead,MD,21074,-76.94567,39.62619,rfIhTsZjTY
152,88428 Douglas Lake,Oakland,MD,21550,-79.447085,39.476106,LeGAbzeihz
153,513 Scott Fort Suite 634,Easton,MD,21601,-76.114235,38.840587,PgSXmSfPDt
154,136 Robin Ridges,Lavale,MD,21502,-78.863385,39.677803,EXNUvanfJw
155,897 Johnson Harbor,Severn,MD,21144,-76.640375,39.187029,aIxMUOEjAx
156,150 Dennis Isle,Westminster,MD,21157,-77.067619,39.635947,NIhagCIuek
157,62618 Kimberly Hollow Suite 618,Severn,MD,21144,-76.68573,39.125867,xTndInkgpJ
158,2987 Brooke Terrace Suite 914,Dunkirk,MD,20754,-76.782987,38.721658,uCVfCUXxdu
159,2023 Amy Drive,Hanover,MD,21076,-76.735201,39.277003,YeXRdeqdJe
160,693 Thomas Summit,Sykesville,MD,21784,-76.950715,39.480843,VgQrDPswoq
161,948 Moore Port,Hagerstown,MD,21740,-77.741892,39.727913,CJvUKTWWxj
162,4469 Edwards Road Suite 014,Landover Hills,MD,20784,-76.962339,38.922992,PMuqgAEOew
163,56944 Michael Parkways,Glen Burnie,MD,21060,-76.643438,39.253819,NZArUIYmPr
164,311 Howard Road Apt. 846,Prince Frederick,MD,20678,-76.625275,38.523311,tldZydsYtg
165,05755 Krause Lake,Hanover,MD,21076,-76.759676,39.249388,KFbDtMoAQt
166,6248 Sean Gateway Suite 728,Germantown,MD,20876,-77.319089,39.255739,wjKMPlcLzQ
167,392 Ann Fall,North East,MD,21901,-76.032048,39.623068,NwxxzktOJV
168,7569 Ryan Shores,Germantown,MD,20876,-77.356282,39.214664,GkcNBTVyoK
169,7457 Michelle Stravenue Suite 322,Baltimore,MD,21220,-76.476644,39.337523,nDUBrkWQBn
170,214 Christopher Heights Suite 253,California,MD,20619,-76.58179,38.363285,ZhSvfbZYfg
171,1426 Garcia Causeway Suite 006,Abingdon,MD,21009,-76.318319,39.543535,aLbDQsacse
172,51690 Carl Throughway,Dunkirk,MD,20754,-76.716657,38.757547,TWwpOfPYNv
173,6468 Hawkins Ford Suite 321,La Plata,MD,20646,-77.028748,38.63986,UFaoBgacJe
174,1368 Stephen Harbor,Berlin,MD,21811,-75.264176,38.328732,CUmjvtJxOR
175,167 Brown Ford Apt. 332,Owings Mills,MD,21117,-76.835833,39.475062,OaxmHODuPH
176,025 Alex Stream Apt. 641,Bowie,MD,20716,-76.751063,38.929517,buToWGpHGc
177,5741 Green Parks Suite 442,Frederick,MD,21701,-77.435548,39.456035,YmEFpllxHe
178,0460 Compton Plaza Apt. 118,Sykesville,MD,21784,-76.92188,39.416862,tXDjkuolSR
179,9128 Norman Flat,Lavale,MD,21502,-78.811001,39.675863,QDHhvnqplC
180,920 Bonnie Burg Suite 392,North East,MD,21901,-76.013905,39.671511,TKMLNnFSCe
181,957 Patrick Rest,Pasadena,MD,21122,-76.677007,39.141836,shMTErzXRE
182,11282 Timothy Orchard,Prince Frederick,MD,20678,-76.610537,38.5747,xexHSGfTGZ
183,0066 Underwood Fall,Berlin,MD,21811,-75.236229,38.326261,XnMRESzEVI
184,04395 Villarreal Ports,Hagerstown,MD,21740,-77.730252,39.784971,rmIlIwzWRp
185,363 Thomas Square Apt. 871,Columbia,MD,21045,-76.882155,39.282153,zaddbBcImw
186,9575 Stacey Cove Apt. 998,Hampstead,MD,21074,-76.978272,39.610282,oTryGmnmxE
187,521 Joseph Rapids,Glen Burnie,MD,21060,-76.6695,39.230196,JepmqVsqay
188,652 Peters Corner Apt. 764,Oakland,MD,21550,-79.43382,39.467023,NRrBsRrkHy
189,15522 Ruiz Rue,Fallston,MD,21047,-76.440667,39.511568,JdMCjqQyie
190,2039 Andrade Springs Suite 994,Salisbury,MD,21826,-75.65974,38.387504,ZMBifDAxmG
191,979 Lori Track Suite 998,Hanover,MD,21076,-76.772574,39.235589,iPhzLnYDto
192,47190 Gina Ridges Suite 154,Pocomoke City,MD,21851,-75.636987,38.128194,fszdTKYRsp
193,923 Richardson Roads Suite 076,Mount Airy,MD,21771,-77.2304,39.464273,maYwFvjhmY
194,934 Brad Rest Suite 327,Nottingham,MD,21236,-76.537823,39.434928,PUNfFvKWhe
195,2877 Hanson Knoll Apt. 290,Hanover,MD,21076,-76.712811,39.255883,jqFDCbdMUw
196,4861 Tiffany Forks,Laurel,MD,20724,-76.851687,39.179564,ggZXugNqCg
197,26980 George Square Apt. 139,Mount Airy,MD,21771,-77.279822,39.452174,titTpImdLB
198,75885 Smith Stream Suite 785,Abingdon,MD,21009,-76.312564,39.520531,fYZROvqKRY
199,6146 Kellie Fort,Towson,MD,21286,-76.63273,39.469231,lXdwbOgCrx
200,3872 Alexander Corner,Belmont,NC,28012,-81.083959,35.361884,YDlDmOCEkI
201,316 Boone Port Apt. 134,Morganton,NC,28655,-81.720468,35.759268,olTmLAEZOe
202,6184 Herbert Village,Morganton,NC,28655,-81.742223,35.726843,kiFNqERDHX
203,83225 Meredith Ports Suite 963,Raeford,NC,28376,-79.277397,35.015389,RMmrDBIHvy
204,3559 Cruz Curve Suite 382,Clayton,NC,27520,-78.5184,35.753415,cndBwUOUEu
205,57021 Haas Lodge Suite 312,Cary,NC,27513,-78.883031,35.83854,mUoITlDfto
206,30020 Crystal Springs Apt. 192,Asheville,NC,28803,-82.534657,35.510608,QLSRYotMjR
207,63790 Anderson Stream Suite 271,Gastonia,NC,28056,-81.180783,35.319382,RTBahhwCrn
208,875 Butler Oval,Burlington,NC,27217,-79.481214,36.132823,RMUCsVRPwG
209,46935 Amy Corner Suite 934,Dallas,NC,28034,-81.211347,35.343327,ZdlMAYhgSN
210,46961 Bishop Isle,Weaverville,NC,28787,-82.623488,35.714848,JRJxpqwNGp
211,5996 Campbell Harbors Apt. 189,Elkin,NC,28621,-80.860751,36.320927,KaHkBbNkUp
212,41587 Phyllis Ridges Apt. 008,Goldsboro,NC,27530,-78.172837,35.476024,ZsxbUYOsDr
213,659 Kristine Via Apt. 776,Ahoskie,NC,27910,-77.064245,36.351331,XBILIicqpf
214,72453 Simon Glen,Fayetteville,NC,28304,-79.122353,35.056155,yEYjhfdAYX
215,09293 Mark Dale,Jacksonville,NC,28540,-77.564191,34.841235,enWjYnfMJK
216,91391 Craig Roads,Taylorsville,NC,28681,-81.267187,35.970217,dyemYJSXgv
217,38007 Joshua Street Suite 302,Cary,NC,27518,-78.817953,35.75788,pzkoIQkCnE
218,575 Parker Locks,Hendersonville,NC,28792,-82.483151,35.332055,ThwdTrWQuD
219,643 Russell Curve,Durham,NC,27704,-78.860493,36.0233,EnilLJBudR
220,1374 Thompson Plains Apt. 810,Wilkesboro,NC,28697,-81.242436,36.185292,SuNtFxkxpw
221,1829 Yvonne Square Suite 048,Wake Forest,NC,27587,-78.536801,36.015896,kNIQkSiJEb
222,7969 Shawn Mountain,Roanoke Rapids,NC,27870,-77.659243,36.474148,ZUGNkWmDls
223,54842 Ramos Row Suite 520,Spruce Pine,NC,28777,-82.045701,35.920547,FyGBnjpYFf
224,69883 Mary Prairie Apt. 749,Erwin,NC,28339,-78.664937,35.347584,VHzMKVNPlo
225,83182 Sherri Island Suite 668,Spruce Pine,NC,28777,-82.064499,35.983464,AlPtmhkbFT
226,96946 Wesley Loop Apt. 736,Hillsborough,NC,27278,-79.162431,36.167193,JDOEidkYyf
227,29730 Karen Mount,Raleigh,NC,27616,-78.644982,35.963857,ywTAQhSgnw
228,81147 Derek Vista,Lenoir,NC,28645,-81.547314,35.974739,GLBsKJbuNU
229,39925 Nicholson Mills,Charlotte,NC,28226,-80.818355,35.173959,AumSXKGYyi
230,84002 Melissa Keys,Wallace,NC,28466,-78.0175,34.754742,sLFnJOZPiy
231,61729 Norma Way,Hudson,NC,28638,-81.529933,35.933,UeieDAxzrj
232,212 Logan Springs,Mount Airy,NC,27030,-80.622046,36.55729,EIOEsnJuyg
233,701 Brown Extension Suite 238,Wilmington,NC,28412,-77.981636,34.113204,YgOvDRERAf
234,84851 Cindy Valley Suite 117,Newton,NC,28658,-81.241995,35.78373,XBSVpxYicu
235,423 Frank Meadow Apt. 860,Charlotte,NC,28262,-80.784353,35.374277,CtYCTloKPV
236,85342 Christopher Unions,Winston Salem,NC,27106,-80.353488,36.269034,pmPjrJtWoA
237,5254 Branch Crescent,Goldsboro,NC,27530,-78.151273,35.467854,PsiQqttoYl
238,569 Heather Trail,Huntersville,NC,28078,-80.85999,35.42385,SVPCJAmhUk
239,69132 Laura Burgs Suite 823,Southport,NC,28461,-78.088377,33.965205,uOKwrGoDHh
240,27093 Jeffrey Ridges,Indian Trail,NC,28079,-80.632378,35.117435,POjlUerOyJ
241,00005 Morales Ville,Leland,NC,28451,-78.058353,34.211607,uwCiQrYLmU
242,4421 Wilson Bridge Suite 256,Winston Salem,NC,27127,-80.358372,36.064772,KsRIkdNswL
243,847 Tony Plaza Apt. 467,Winston Salem,NC,27103,-80.315365,36.175357,gFUsqDWbCX
244,643 Elizabeth Islands,Erwin,NC,28339,-78.631657,35.32804,pdWdXeUWtl
245,744 Cruz Centers Suite 692,Shelby,NC,28152,-81.553626,35.379714,OFKLaoLWJV
246,0550 Mackenzie Viaduct,Wilson,NC,27893,-77.988226,35.745,gYHvpaEMBV
247,95847 Joanne Walk Suite 124,Clinton,NC,28328,-78.433437,35.044103,hMyyQbuUza
248,2840 Owens Throughway,Fayetteville,NC,28314,-79.145213,35.176391,oFLgHHLitZ
249,2624 Sally Junction Suite 647,Winston Salem,NC,27105,-80.375375,36.228508,tbBsoHzirx
250,3514 William Forge Suite 651,Winston Salem,NC,27105,-80.352372,36.252179,xylmLtIIpa
251,506 Lynn Island Apt. 604,Siler City,NC,27344,-79.428078,35.725543,lPvLDjTUdS
252,1377 Mcgee Summit,Marion,NC,28752,-82.029733,35.671395,KAwHvLuBOm
253,4508 Mark Shore,Goldsboro,NC,27530,-78.158113,35.462859,dzFofdyXNd
254,24864 Weber Flat,Durham,NC,27707,-79.041039,36.084254,FwzAxNhPZY
255,000 Tiffany Villages,Charlotte,NC,28205,-80.8458,35.288676,CWlcloSqUP
256,44371 Paul Common,Charlotte,NC,28226,-80.825984,35.131312,gNWUyLZduH
257,005 Michael Manors Suite 955,Raleigh,NC,27616,-78.648703,35.959908,hOtnjRjpdC
258,78006 Margaret Key,Concord,NC,28027,-80.768333,35.486877,HMEouknfyP
259,1951 Kyle Turnpike,Morehead City,NC,28557,-76.849511,34.767246,PyhEzTDnle
260,79743 Kelly Course Apt. 591,Williamston,NC,27892,-77.181224,35.852562,AQJhvECYbo
261,200 George Trace Apt. 592,Hudson,NC,28638,-81.58569,35.973767,IEFYYXCoAy
262,197 Patel Falls,Apex,NC,27502,-78.877285,35.760133,pTjBsrdkrk
263,624 Johnson Square,Zebulon,NC,27597,-78.326589,35.844348,HeypgFVhtZ
264,469 Hernandez Club,Raleigh,NC,27610,-78.643346,35.817433,RRKGuJGdEo
265,585 Boyd Row,High Point,NC,27265,-80.047088,36.073702,IrjbzcNmqe
266,346 Horne Plains Apt. 606,Greensboro,NC,27410,-79.964409,36.154511,BiwcdPECnT
267,7186 Scott Village Apt. 905,Statesville,NC,28625,-80.948961,35.823581,duMTxAdnGK
268,1083 Daniel Freeway Apt. 819,Kinston,NC,28504,-77.653318,35.382752,rnvQgrWznD
269,56788 Collier Motorway,Charlotte,NC,28226,-80.930893,35.168628,gpXlzOpgQD
270,6300 Spencer Trail,Fayetteville,NC,28303,-79.065348,35.150532,ofXiDgmtga
271,058 Campbell Glens,Hendersonville,NC,28792,-82.476639,35.378874,aPDIFBhjZX
272,4759 Kristen Mews,Durham,NC,27704,-78.823757,36.041352,cTSFWvKvdv
273,78841 James Street,Statesville,NC,28625,-80.972032,35.872131,ahMAqUdAiu
274,29527 Melinda Motorway Suite 882,Wilson,NC,27893,-77.974623,35.765272,JyNevVXRzH
275,76096 Salazar Ramp Apt. 547,Spruce Pine,NC,28777,-82.057413,35.941609,TeIcrQGGDI
276,2476 Ellis Square Apt. 144,Laurinburg,NC,28352,-79.552988,34.848391,HiApgCJHRY
277,35218 Lynch Spur,Fayetteville,NC,28311,-78.915514,35.113907,kRHYbdnEYj
278,8040 Lee Crossroad Apt. 776,Charlotte,NC,28227,-80.774287,35.256238,xNCAbTUKhh
279,443 Carson Land,Raleigh,NC,27609,-78.624018,35.826583,HjRvXNXDSy
280,8554 Cross Roads,Wadesboro,NC,28170,-80.135142,35.082327,oJeTUSrqXM
281,4041 Gordon Orchard Apt. 454,Winterville,NC,28590,-77.422011,35.653944,jbqUAZCKCl
282,02155 Anthony Road Apt. 411,Mount Olive,NC,28365,-78.185103,35.256951,PUfofHtbhd
283,374 Robert Stream,Raleigh,NC,27603,-78.716891,35.783413,HvBgxlMOvw
284,985 Jones Landing,Fayetteville,NC,28306,-78.966861,35.041137,cBbTXbaeIL
285,34031 Nelson Ranch,Gastonia,NC,28052,-81.287475,35.357572,hkLTWWiaIL
286,8183 Robert Ridges,Jacksonville,NC,28546,-77.466625,34.87109,CtYpAAJulE
287,890 Andrew Burg Suite 171,Wake Forest,NC,27587,-78.55668,36.069254,hLzlJhqgZo
288,632 Morrison Village Suite 616,Albemarle,NC,28001,-80.256016,35.37832,POwsYiKTFb
289,3520 Christine Canyon,Lumberton,NC,28358,-79.018566,34.630024,DslyWcJhZo
290,373 James Valleys,Charlotte,NC,28227,-80.768772,35.270487,cBtecZlisr
291,904 Ray Ways,Charlotte,NC,28262,-80.715176,35.344457,bRoJJCszSW
292,754 Whitney Squares Apt. 754,Spring Lake,NC,28390,-79.060351,35.228068,MuYeEgYdah
293,8000 Alexandra Coves,Kernersville,NC,27284,-80.129263,36.123566,JRFpOsjNqU
294,383 Short Pass Suite 299,Mount Olive,NC,28365,-78.148898,35.255792,TYNmOJvNqu
295,065 Kevin Fall,Fayetteville,NC,28303,-79.023747,35.128485,saHcoEeuAj
296,5771 James Well,Holly Springs,NC,27540,-78.847733,35.661695,QRwIvmtBYB
297,1203 Vazquez Circles Suite 269,Concord,NC,28027,-80.763677,35.430635,LyJdpWdlLE
298,30318 Kirk Place Suite 398,Monroe,NC,28110,-80.643437,35.083458,ZPOrBvjfvR
299,17073 Jennifer Greens Suite 594,Charlotte,NC,28226,-80.944986,35.113588,CmtnjyFpra
300,18585 Jesse Circles Suite 585,Sioux Falls,SD,57108,-96.735191,43.546316,JyBQoNAoAt
301,3108 Moore Harbor Apt. 003,Sioux Falls,SD,57107,-96.874227,43.683376,LcFYbLUGJr
302,69409 Jessica Ramp,Sioux Falls,SD,57107,-96.831528,43.651345,KVosHxrGpO
303,7344 Garrett Unions,Rapid City,SD,57701,-103.250536,44.12722,OlRGzNzqxo
304,039 Lopez Stravenue,Sioux Falls,SD,57108,-96.727316,43.518877,YmQwIatAsp
305,62460 Rogers Viaduct Apt. 129,Sioux Falls,SD,57107,-96.824205,43.648925,aEEjZOjEBf
306,37376 Barnes Crossroad Apt. 740,Sioux Falls,SD,57108,-96.779969,43.538225,AJdBhRjmDO
307,9613 Cynthia Greens Suite 653,Sioux Falls,SD,57107,-96.836033,43.645938,QIZzszBWXF
308,6925 Mcclain Fall,Sioux Falls,SD,57110,-96.78172,43.51577,jgwWpXsYOq
309,27859 Brian Drives,Mitchell,SD,57301,-98.030909,43.762413,KWfsncKdFj
310,7867 Nash Drives Apt. 716,Watertown,SD,57201,-97.161949,44.968914,XmgKGBQJFU
311,29428 Rhodes Trail Suite 066,Sioux Falls,SD,57110,-96.773257,43.566929,YmLguhwZnR
312,96303 Ryan Course Apt. 530,Brookings,SD,57006,-96.882959,44.312735,TxosVWpIob
313,634 Le Tunnel Apt. 411,Mitchell,SD,57301,-98.062975,43.72434,kpocSyRUbz
314,93691 Mark Ferry,Mitchell,SD,57301,-98.011719,43.766959,klGxCKjJss
315,14647 Frank Plains,Huron,SD,57350,-98.244029,44.322626,RHlNNKrEzy
316,67607 Scott Court Suite 920,Pierre,SD,57501,-100.310633,44.451165,AlwTeNvZSd
317,03071 Oliver Flat Apt. 236,Vermillion,SD,57069,-96.910968,42.87823,fgPVSXLpUW
318,198 David Passage,Spearfish,SD,57783,-103.811041,44.555728,afGjmLQrTa
319,908 Hodges Port,Sioux Falls,SD,57110,-96.750318,43.55122,UXZmuTaSyF
320,25133 Maldonado Trace,Yankton,SD,57078,-97.410924,42.982007,ikqgykdXBp
321,620 Williams Passage Suite 460,Sioux Falls,SD,57110,-96.741952,43.551253,vfHSwygCAO
322,275 Cooley Coves Suite 443,Huron,SD,57350,-98.247584,44.334761,aaouOydWBN
323,549 Kayla Field Suite 846,Watertown,SD,57201,-97.183644,44.981509,ogNYDZruHL
324,3003 Emma Station Apt. 873,Vermillion,SD,57069,-96.962728,42.846534,RFIFncrdgq
325,924 William Drive Apt. 722,Huron,SD,57350,-98.211004,44.337259,WeVQRSLOIz
326,15637 Cabrera Plains,Sioux Falls,SD,57110,-96.740229,43.567883,OllAlhAWjI
327,63197 Brittany Parks Suite 912,Sioux Falls,SD,57107,-96.817311,43.621748,miEnpYinkT
328,18332 Rios Gateway Suite 530,Pierre,SD,57501,-100.332241,44.439524,BTJbUSnMXN
329,95186 Sarah Fords Apt. 461,Spearfish,SD,57783,-103.84093,44.543983,HDtQpdXVNu
330,76810 Webb Views,Rapid City,SD,57701,-103.246015,44.034442,YkdSRksIGC
331,146 Lowe Expressway,Pierre,SD,57501,-100.318588,44.431717,aXSjptGwSF
332,2560 Frost Well Suite 082,Sioux Falls,SD,57106,-96.879618,43.551101,zZfCBcAJLp
333,6237 Robert Divide Suite 757,Sioux Falls,SD,57107,-96.873927,43.63871,uXKdapqVrt
334,62160 Jones Crossing Apt. 203,Sioux Falls,SD,57110,-96.72667,43.584863,grWLlzAZLi
335,9507 William Ford Suite 811,Spearfish,SD,57783,-103.865111,44.560338,ylSHPJtBMz
336,01076 Sellers View Suite 891,Spearfish,SD,57783,-103.86677,44.511382,KmxKnMGRGh
337,3425 Parker Garden,Sioux Falls,SD,57106,-96.821324,43.51812,MCoonTKKUo
338,6790 Smith Trail,Vermillion,SD,57069,-96.926934,42.85607,XzNzPvCSOf
339,0520 Christina Port,Sioux Falls,SD,57108,-96.760068,43.573776,ppYPyacFjR
340,6158 Jason Meadow,Pierre,SD,57501,-100.384414,44.434859,cfzhLYfQsB
341,5156 Morgan Mews,Vermillion,SD,57069,-96.935497,42.839412,BuPPFSGYTQ
342,4296 Rush Squares,Rapid City,SD,57701,-103.289631,44.053466,fDSvBwCQqk
343,7383 Kurt Bridge,Brookings,SD,57006,-96.869983,44.33689,iExCzMDAdV
344,20921 Neal Mountains,Brookings,SD,57006,-96.885502,44.328356,qumEdyEDjr
345,76511 Johnson Turnpike Apt. 674,Spearfish,SD,57783,-103.840447,44.553588,vZFWJbPuaQ
346,975 Lloyd Light Apt. 394,Aberdeen,SD,57401,-98.456061,45.517078,plTHSLflph
347,6185 Sexton Row Apt. 158,Rapid City,SD,57701,-103.276576,44.113514,PcNBYvKbWI
348,52532 Jessica Forest,Sioux Falls,SD,57107,-96.869418,43.627771,JFpDRvgazV
349,747 Gonzales Dale,Vermillion,SD,57069,-96.98724,42.811792,vIBybltTIW
350,1562 Danielle Island,Aberdeen,SD,57401,-98.442944,45.587108,FyktzNVcgX
351,2679 Anthony Corner,Aberdeen,SD,57401,-98.411624,45.584474,LvXbxqXbeZ
352,71445 Frank Ridge Suite 261,Spearfish,SD,57783,-103.822982,44.557318,eEoVLMDdXt
353,718 Martin Fort Suite 789,Rapid City,SD,57701,-103.274616,44.058859,qaARViwbqM
354,4795 Kathleen Manor,Watertown,SD,57201,-97.11297,44.910418,dqQlCgWjsR
355,005 Keller Groves,Sioux Falls,SD,57107,-96.877283,43.670813,qFxKxWjvzQ
356,3638 Smith Inlet Apt. 449,Mitchell,SD,57301,-98.066367,43.743366,nfdluWZdTN
357,4649 Donna Manor Apt. 670,Mitchell,SD,57301,-98.05595,43.739558,HbJhyPDIer
358,76702 Jonathan Groves Apt. 138,Spearfish,SD,57783,-103.810609,44.560747,XGRDcMkLoD
359,432 Allen Meadow,Sioux Falls,SD,57110,-96.723476,43.532285,zPINgGXNfH
360,730 Gallegos Lake,Huron,SD,57350,-98.228226,44.341991,VnruSgoPqc
361,01474 Michelle Lights,Sioux Falls,SD,57107,-96.854975,43.630985,EtWgpExUXL
362,663 Medina Points Apt. 735,Rapid City,SD,57701,-103.228645,44.18732,ooYSrFyHpz
363,6356 Brian Neck,Pierre,SD,57501,-100.320178,44.475722,bymqTNhwmj
364,85303 Haley Key,Spearfish,SD,57783,-103.824828,44.514952,TffgciqFHX
365,3167 Schmidt Island,Rapid City,SD,57701,-103.267236,44.131057,nzWNuZIsxn
366,177 Lawrence Place Suite 846,Yankton,SD,57078,-97.427521,42.967535,eAjtsJzhBT
367,79476 Lawrence Lane Apt. 580,Vermillion,SD,57069,-96.91217,42.811209,aOAcYnlCBK
368,2482 Ann Island Apt. 881,Sioux Falls,SD,57107,-96.83384,43.63956,altPtRsZvP
369,77995 Peter Mall Apt. 952,Sioux Falls,SD,57108,-96.716172,43.586294,VWyyolNjgR
370,81963 Kristina Terrace,Mitchell,SD,57301,-98.07962,43.762955,vqqOIAWhjU
371,69483 Stout Stravenue Apt. 869,Pierre,SD,57501,-100.347772,44.454196,vRracYizdZ
372,577 Scott Parkways,Rapid City,SD,57701,-103.228034,44.157108,QtZpckzUmP
373,06592 Wallace Valley Apt. 253,Yankton,SD,57078,-97.4398,42.919555,uvdmnnVXQE
374,58499 Jeffrey Tunnel,Pierre,SD,57501,-100.318834,44.477626,pPjCPATMdy
375,746 Mark Rapid Apt. 719,Sioux Falls,SD,57107,-96.878617,43.621743,HVcGPohfcV
376,487 Timothy Freeway,Rapid City,SD,57701,-103.253196,44.08201,VpTtafGvhI
377,56526 Jackson Lakes Suite 964,Sioux Falls,SD,57107,-96.882804,43.613056,AREvgkIVpC
378,1500 Larry Turnpike Apt. 410,Huron,SD,57350,-98.211866,44.325823,cTOQXvsmxc
379,6462 Hood Lock,Sioux Falls,SD,57110,-96.737309,43.562259,eoBtuVwMpq
380,9712 Johns Hollow,Brookings,SD,57006,-96.885211,44.367241,jRGhuNcxaO
381,35461 Thomas Shoal Apt. 090,Spearfish,SD,57783,-103.849289,44.568048,pmLxtmOJhg
382,548 Schwartz Plain,Vermillion,SD,57069,-96.917744,42.866604,VtfvOreCrZ
383,0800 Bautista Inlet,Sioux Falls,SD,57106,-96.851284,43.564753,CCWbRxHeTI
384,170 Leslie Wall Apt. 223,Vermillion,SD,57069,-96.947679,42.825291,BLTYQgKmIE
385,12205 Virginia Ports,Watertown,SD,57201,-97.163302,44.933727,XYOsZtbPjq
386,47046 Martin Path,Mitchell,SD,57301,-98.08538,43.744451,oUrhxYDjcz
387,294 Hunt Rue,Sioux Falls,SD,57108,-96.743862,43.522712,aebMKFKFbI
388,9374 Roberson Walks,Vermillion,SD,57069,-96.926615,42.879905,RiMZxoliFR
389,2299 William Fort Apt. 352,Brookings,SD,57006,-96.851276,44.358859,fAHslMgABt
390,8599 Scott Lights,Aberdeen,SD,57401,-98.452659,45.527334,inSMHMlpya
391,880 Jones Lakes,Sioux Falls,SD,57108,-96.750622,43.568335,gLEsJWomOS
392,123 Rachel Ports Apt. 050,Rapid City,SD,57701,-103.225464,44.047102,ctJWTwJYhF
393,4452 Diaz Brooks Suite 461,Spearfish,SD,57783,-103.836263,44.515359,fkfRHJOpPx
394,21792 Phillip Mountain,Brookings,SD,57006,-96.874685,44.312228,koemqyiPVe
395,197 David Trafficway Suite 982,Watertown,SD,57201,-97.178817,44.963088,DIqdSfGRIc
396,05746 Beard Lodge Apt. 244,Huron,SD,57350,-98.274599,44.366823,YsLeEDTRhM
397,797 Clark Tunnel,Sioux Falls,SD,57110,-96.773712,43.585505,iBjFuJXiAa
398,64984 Williams Forest Suite 615,Brookings,SD,57006,-96.869419,44.351057,KwwBZKABke
399,50267 Elizabeth Corners Apt. 590,Mitchell,SD,57301,-98.03734,43.77107,BfwPzOjJYD
400,0341 Derek Crest,Vancouver,WA,98665,-122.748455,45.722575,EusQOscXff
401,2478 Courtney Extensions Suite 324,Ephrata,WA,98823,-119.536077,47.38028,dRNrOZbAYh
402,651 Hebert Tunnel,Bremerton,WA,98311,-122.632975,47.636834,ipayQwNlZB
403,9898 Bowen Ports,Chehalis,WA,98532,-123.039193,46.76565,uXVSZegjSp
404,192 Rebecca Mill Suite 082,Spokane,WA,99205,-117.461612,47.773337,ypRlFlZvra
405,1353 Gonzales Inlet Apt. 934,Sequim,WA,98382,-123.179812,48.160655,NVjsfSRzJb
406,5903 Parks Street,Oak Harbor,WA,98277,-122.752145,48.378155,oHzEcirKDt
407,7526 Christensen Crossing,Port Angeles,WA,98362,-123.478902,48.150704,jLZbzDOUnJ
408,727 Kelly Well Suite 310,Marysville,WA,98271,-122.211523,48.132553,NfwRWoETQz
409,8732 Bradley Crossroad Apt. 004,Spokane,WA,99205,-117.443033,47.778029,vGzJkPabFz
410,124 Bradley Cliff,Vancouver,WA,98661,-122.634005,45.681624,aAduSIEVSd
411,689 Wilson Ferry Suite 355,Lynnwood,WA,98037,-122.341401,47.84625,vUJPLfaPYS
412,877 Joshua Courts,Port Angeles,WA,98362,-123.454483,48.148581,ASpeGfoxYY
413,4230 Smith Forks Apt. 300,Yakima,WA,98901,-120.574491,46.663882,RIitgIHZZj
414,51432 Kayla Lock Apt. 481,Spanaway,WA,98387,-122.426128,47.146769,gDpteNcHol
415,00073 Scott Common,Pullman,WA,99163,-117.243888,46.737478,DIXfyEKNpz
416,9526 Cabrera Creek Suite 420,Spokane,WA,99224,-117.676427,47.621439,iMrobTHAIV
417,77677 Bishop Islands,Spokane Valley,WA,99037,-117.260943,47.770428,dHjQPUDOsv
418,894 John Park,Bellevue,WA,98007,-122.183465,47.686921,BKmjieiZOl
419,787 Tracey Passage Apt. 333,Vancouver,WA,98661,-122.612425,45.639101,wsLXkyjGOr
420,6729 Garza Islands Apt. 063,Federal Way,WA,98003,-122.352827,47.361248,eAhSbAylut
421,5680 Dakota Plain Apt. 207,Lacey,WA,98503,-122.846465,47.025602,kHdVOQfryx
422,561 Riggs Well,Battle Ground,WA,98604,-122.569317,45.824895,GLOwphsTap
423,91804 Catherine Station,Omak,WA,98841,-119.549706,48.453829,BvgOfxzhKq
424,9364 April Lane,Yakima,WA,98901,-120.548594,46.661991,YJgTPcWlUc
425,67518 Jackson Mountain Suite 448,Battle Ground,WA,98604,-122.553604,45.835204,GeBJNPLoUT
426,28071 Victoria Knoll,Vancouver,WA,98664,-122.674417,45.651577,YoCLBfVosm
427,69014 Morrow Cape,Arlington,WA,98223,-122.239431,48.260482,CCmqIesDcu
428,23489 Gutierrez Crossing Suite 288,Spokane Valley,WA,99212,-117.389658,47.714105,mcQdmusjSV
429,49444 Katelyn Prairie Suite 826,Poulsbo,WA,98370,-122.761598,47.844694,nIMmACvDDe
430,0172 Kevin Club,Bellevue,WA,98007,-122.164874,47.645685,OewDKqvlQD
431,29835 Crystal Canyon Suite 969,Monroe,WA,98272,-122.010288,47.970713,ZlGdsVEtuM
432,129 Dean Summit,Vancouver,WA,98662,-122.620946,45.66178,mEzlZkuIFp
433,195 Young Fall Suite 278,Bremerton,WA,98311,-122.610176,47.622199,VVcnTcXSoe
434,7661 Mejia Terrace Apt. 711,Sequim,WA,98382,-123.139913,48.139396,ZVHkSLWPvx
435,8325 Hailey Springs,Omak,WA,98841,-119.518217,48.449734,vvkxganHsl
436,945 Natalie Lake Apt. 762,Bellevue,WA,98007,-122.128342,47.634281,VycQSuSAes
437,2707 Mooney Courts Apt. 408,Chelan,WA,98816,-120.031137,47.86536,EuAybHvHDY
438,43453 Michelle Forks,Aberdeen,WA,98520,-123.833238,47.062139,xLHEyCkomK
439,2394 Cunningham Gateway,Spokane,WA,99218,-117.439357,47.782821,JjnxpfNqVh
440,305 Walker Street,Yakima,WA,98908,-120.674724,46.616315,PcQCCTNJFE
441,9601 Brown Harbors,Puyallup,WA,98374,-122.354887,47.262018,RgVPbpneAg
442,1171 Ronnie Plains,Yakima,WA,98901,-120.55837,46.663973,XenxEyHVZd
443,8119 Christopher Ramp Apt. 107,Chehalis,WA,98532,-123.033107,46.756665,jFvFABqFhJ
444,72942 Jason Lakes Suite 950,Tacoma,WA,98405,-122.540953,47.265896,FBTJTMKQft
445,93043 Palmer Creek,Bremerton,WA,98311,-122.613242,47.689205,IEpfRuNZme
446,8753 Sean Court,Wenatchee,WA,98801,-120.363133,47.519225,ljgTjxzUJM
447,528 Sanders Bridge,Federal Way,WA,98003,-122.35228,47.338529,XjxDYloXOQ
448,7030 Holt Club Suite 526,Spokane,WA,99205,-117.454417,47.766349,OAVpiEEGhi
449,834 Deleon Extension Apt. 433,Poulsbo,WA,98370,-122.740562,47.882147,wgcxCAQRPb
450,98236 Melinda Point Suite 612,Federal Way,WA,98003,-122.387151,47.374542,MZmKXMGTcd
451,17544 Edwards Crescent Suite 511,Yakima,WA,98901,-120.552377,46.650215,zSOwTADmRy
452,1002 Patrick Pines,Bremerton,WA,98311,-122.66987,47.673804,UyqStheqMW
453,6759 Amy Turnpike Apt. 037,Tumwater,WA,98512,-122.911204,47.020306,QJkjxmkasX
454,2874 Hannah Key Suite 870,Renton,WA,98057,-122.229758,47.512519,yIIdWFkppl
455,83329 Mark Via Apt. 420,Puyallup,WA,98375,-122.385471,47.119541,VYELuvCrvC
456,049 Stephen Gardens Apt. 016,Battle Ground,WA,98604,-122.586399,45.813276,PcvzkdZdDZ
457,32037 Barbara Manors,Lacey,WA,98503,-122.849203,47.018483,QGdanfopjY
458,285 Cannon Squares,Puyallup,WA,98375,-122.354412,47.175494,DqrIKyhckM
459,394 Stein Lane Apt. 987,Aberdeen,WA,98520,-123.83469,47.060252,CDhrfrCMHb
460,20466 Smith Forge Apt. 306,Chehalis,WA,98532,-123.030446,46.752246,OzxZTehfaE
461,73461 Fernandez Throughway,Bellevue,WA,98006,-122.247258,47.675322,kbuucebnIQ
462,305 Joseph Meadows,Wenatchee,WA,98801,-120.370975,47.571716,rrBCefWPLA
463,9498 Penny Road,Oak Harbor,WA,98277,-122.711696,48.344867,LERSZOpwcI
464,51453 Michael Circles Apt. 117,Yakima,WA,98908,-120.620121,46.678041,HDYLwREydk
465,671 Allison Throughway,Spokane Valley,WA,99212,-117.354179,47.760097,cmWjUVjMqw
466,028 Antonio Plains Suite 456,Lacey,WA,98503,-122.848062,47.068155,VkjghQfkFK
467,093 Aaron Summit,Longview,WA,98632,-122.936024,46.112351,lxxdltjfcx
468,067 Paige Underpass,Spokane,WA,99224,-117.615857,47.649427,uSSKHlkJWe
469,81753 Huynh Manors Suite 209,Vancouver,WA,98664,-122.671563,45.630432,XaWZfQKGWm
470,434 Paul Crescent Suite 281,Vancouver,WA,98682,-122.518997,45.748138,qhMkxECiPr
471,541 Williams Flat Suite 733,Spokane Valley,WA,99212,-117.388891,47.788096,sTxIdKysyb
472,0083 Curtis Way Suite 939,Spokane Valley,WA,99212,-117.35708,47.775396,VSnuhTaAQQ
473,39390 Martinez Coves Apt. 391,Othello,WA,99344,-119.142502,46.852085,VJiuCAiZTb
474,18992 Sarah Rue Suite 558,Ephrata,WA,98823,-119.562362,47.346992,EuZgGrcfPj
475,4834 Alyssa Drive,Battle Ground,WA,98604,-122.550059,45.885621,kMUChbTzLc
476,857 Marshall Lodge Suite 926,Renton,WA,98057,-122.222676,47.57894,jhTssCvSGh
477,23122 John Stravenue,Battle Ground,WA,98604,-122.581228,45.816887,IOvTwKHthP
478,9956 Hall Passage,Yakima,WA,98908,-120.628939,46.622903,fxYKGgbnUY
479,5454 Lisa Rapid,Ephrata,WA,98823,-119.58937,47.354872,gXoKqhOfBx
480,71852 Ward Manors,Omak,WA,98841,-119.531522,48.48093,yfNeDCMJHH
481,1993 Meyer Causeway Suite 664,Puyallup,WA,98374,-122.362427,47.219947,jLxpRvRDDU
482,407 Meyer River,Renton,WA,98057,-122.234986,47.585338,YXfvZbasCy
483,26915 Joshua Neck,Yelm,WA,98597,-122.650057,46.927931,NqRKRQRJMK
484,03740 Dodson Forges,Puyallup,WA,98374,-122.373378,47.238446,fJHGkKCTQi
485,70906 Griffin Summit Apt. 618,Vancouver,WA,98683,-122.58794,45.659032,FjqlPFTeHg
486,476 Nguyen Rue Apt. 028,Woodland,WA,98674,-122.829544,45.966883,pBBUuFzkkr
487,8853 Madden Ports,Oak Harbor,WA,98277,-122.75297,48.368877,iPfsmIJkBF
488,6280 Donna Road,Ephrata,WA,98823,-119.512891,47.342189,UDOXpIoUpo
489,320 Nguyen Ways,Poulsbo,WA,98370,-122.77349,47.857072,KhsibDSUps
490,0523 Todd Hills,Tacoma,WA,98405,-122.565848,47.228666,qTdWTdiGui
491,2091 Marcus Fords Suite 005,Lakewood,WA,98499,-122.557626,47.227606,bUPFdvsjAs
492,271 Kathryn Springs,Marysville,WA,98270,-122.124386,48.185733,sjyqHMmdzD
493,808 Brittany Station Apt. 070,Longview,WA,98632,-123.021753,46.214332,vzeadCPMfD
494,341 Long Wells Apt. 047,Auburn,WA,98001,-122.230848,47.363604,CwFyucNXsm
495,890 Moran Rue,Sunnyside,WA,98944,-120.018526,46.349206,lohABuzPnL
496,387 Aguilar Valley,Bellingham,WA,98226,-122.523318,48.828942,wfaRragYXh
497,5530 White Ranch Suite 650,Battle Ground,WA,98604,-122.516357,45.870797,dYdgLCOfYq
498,8142 Lisa Point Suite 364,Chelan,WA,98816,-120.063807,47.87976,jrtfVsPiee
499,5063 Rivera Ridge,Spokane,WA,99224,-117.644046,47.656195,XsbTWyXyDg
500,414 Anderson Inlet Apt. 800,Round Rock,TX,78664,-97.717536,30.568252,BVNJwmWWWw
501,6931 Cordova Ways,Breckenridge,TX,76424,-98.957565,32.868138,thqMWJuluY
502,4500 Brooke Burgs,Amarillo,TX,79110,-101.946837,35.267179,urYgPqvkiU
503,39269 Becker Plain,Dallas,TX,75204,-96.849832,32.871219,YtkfZpGlmw
504,41438 Wallace Roads Apt. 353,Dallas,TX,75248,-96.840342,33.034629,jbNyghQOZs
505,73062 Spencer Avenue,San Antonio,TX,78245,-98.634769,29.441708,whCuZEygOZ
506,6472 Paul Manor Apt. 922,Kyle,TX,78640,-97.988947,30.071683,iWBnfAbUmX
507,3080 Rivera Branch Apt. 569,Murphy,TX,75094,-96.660767,33.062788,PjLZsTSqJD
508,5097 Clark Haven,Fort Worth,TX,76052,-97.457387,33.01289,krfPJVZrEi
509,6890 Olson Mountain Suite 387,Lubbock,TX,79424,-102.020405,33.533232,ATCSjxhNJr
510,3172 Timothy Shoal,Tomball,TX,77375,-95.631571,30.089605,EjyXWjnRiG
511,25755 Schaefer Ford,Houston,TX,77096,-95.581202,29.743682,PoSYIPWKBX
512,553 Crystal Track,San Antonio,TX,78231,-98.568218,29.680263,yRnPGjSISU
513,24331 Michelle Skyway,Midlothian,TX,76065,-97.056905,32.554483,BUWCHhCUMd
514,0453 Courtney Vista Suite 801,La Grange,TX,78945,-96.985265,29.913062,WFjSQdpDiy
515,76756 Devon Parks,Devine,TX,78016,-98.963573,29.131023,EUALQOhTRN
516,8464 Guerrero Loaf,Seguin,TX,78155,-97.950093,29.684497,RPqyiXPAkE
517,4157 James Dam Apt. 779,Mineola,TX,75773,-95.513274,32.757227,ddMLdBYspA
518,23842 Bridget Roads,Humble,TX,77346,-95.262661,30.025581,urQDuzxzEI
519,127 Virginia Cape,Houston,TX,77077,-95.662679,29.765853,TxbKkaHxJs
520,71070 Edwards Summit,Decatur,TX,76234,-97.641761,33.263837,BusbYmfTBo
521,67407 Robertson Ridges Apt. 808,Plano,TX,75074,-96.713238,33.070975,eXjAAOJblc
522,58834 Charles Streets,Sweetwater,TX,79556,-100.420528,32.580336,EHbPIZRZae
523,786 Jacqueline Streets Suite 210,League City,TX,77573,-95.135553,29.520132,qhzdWJnZvx
524,2001 Todd Forge Suite 590,Gatesville,TX,76528,-97.75956,31.452486,RDIuegHRbb
525,5894 Mathews Fords,Bay City,TX,77414,-95.977966,29.031623,pvSJzicJbR
526,815 Suarez Street,Alice,TX,78332,-98.044012,27.840407,PdQNOXKrgl
527,4251 Roy Valley,Denton,TX,76205,-97.129486,33.23716,TpAoxSeylU
528,1791 Andrew Light,San Antonio,TX,78264,-98.576548,29.319986,FvydMoqDir
529,507 Cruz Estate Apt. 214,El Paso,TX,79912,-106.63419,31.814815,TxcyFzWskd
530,7119 Copeland Prairie,Benbrook,TX,76126,-97.584437,32.742323,AxuPPpoLCX
531,140 Woods Ports Suite 106,Kemah,TX,77565,-95.032742,29.587324,RmFgjGBwIR
532,858 Glass Passage,Alamo,TX,78516,-98.16186,26.283692,ybkOWFftEg
533,725 Munoz Track,Mesquite,TX,75149,-96.65223,32.828289,ckesBlHAep
534,927 Butler Underpass,San Antonio,TX,78228,-98.685739,29.53457,XdkmlhnZVB
535,8144 Brady Shoals Apt. 352,Carrollton,TX,75006,-96.937084,33.061029,LqHFKjtlCY
536,0320 Michelle Fall,Floresville,TX,78114,-98.226509,29.279621,HBnOxlacRN
537,86108 Rivas Key,Garland,TX,75040,-96.671572,33.060611,kdkRFUojGK
538,20507 Brett Ramp Apt. 979,Harlingen,TX,78552,-97.769425,26.284647,bULNmxRIfM
539,742 Johnson Coves Apt. 902,Lancaster,TX,75146,-96.814634,32.68114,NBvAfrqeqB
540,8678 Paul Keys Suite 112,Allen,TX,75013,-96.749474,33.16889,AsWDOjOcoy
541,54030 Buck Branch Suite 378,Fort Worth,TX,76116,-97.45501,32.757473,vRUfPNmREy
542,9378 Williams Shores Suite 055,Spring,TX,77386,-95.427581,30.110197,ncudyLYGCs
543,10534 Tiffany Parkway Apt. 633,Dallas,TX,75228,-96.789268,32.838891,iNeAdWivrb
544,150 Howard Square Apt. 557,San Angelo,TX,76904,-100.543266,31.481089,LQMJABULGU
545,72247 Amber Overpass,Denison,TX,75020,-96.657911,33.860865,nbcNxncuge
546,7398 Pamela Causeway Suite 083,Dallas,TX,75243,-96.823089,32.986112,PxtSByFZGc
547,316 Anthony Pike,Round Rock,TX,78664,-97.731933,30.575074,JEScAmHkIK
548,47932 Simpson Ferry Apt. 287,Gatesville,TX,76528,-97.752836,31.418816,UiDrDspQwu
549,294 Sloan Radial Apt. 047,Uvalde,TX,78801,-99.847885,29.268293,DaoPBsvhLp
550,8526 Roberto Heights,Kingwood,TX,77339,-95.279058,30.157172,QveAhPRniO
551,56828 Angela Center Suite 570,Corpus Christi,TX,78414,-97.441945,27.780608,NdkolTfnIW
552,324 Newton Throughway Suite 696,Dallas,TX,75228,-96.733318,32.880528,woCMGgElvx
553,8315 Morris Turnpike Suite 821,Houston,TX,77082,-95.621665,29.789099,HdBlpUmpqm
554,9058 Amber Spurs Apt. 958,Mission,TX,78572,-98.334423,26.283383,uCdBAmKooH
555,613 Michael Fields,Sealy,TX,77474,-96.212035,29.83576,CORNHbrSxC
556,333 Rice Drives Suite 404,Balch Springs,TX,75180,-96.681918,32.727,wuzVnrXnsT
557,04332 Sharon Alley,Gatesville,TX,76528,-97.72845,31.438781,bSYMKYetHl
558,49883 Michael Neck Suite 729,Katy,TX,77449,-95.780141,29.945696,JQCGsrBWJS
559,8317 White Bridge Suite 241,Spring,TX,77386,-95.44748,30.189562,HuslgPbwHW
560,591 Christina Hills,El Paso,TX,79936,-106.369718,31.860378,scasivezAa
561,791 Stacey Wells,Missouri City,TX,77459,-95.53997,29.512946,ryCsZSEGxO
562,78453 Friedman Turnpike Apt. 895,Fort Worth,TX,76108,-97.554088,32.879741,vugZkaeqgm
563,462 Shane Causeway,San Antonio,TX,78220,-98.466553,29.480274,hGOstIpueN
564,14668 Walter Station Suite 556,Snyder,TX,79549,-100.989831,32.769294,CXWDjqdMaP
565,0005 Vazquez Fort Apt. 042,Austin,TX,78717,-97.881581,30.564898,OzNbIcUqEd
566,69308 Ricky Mission,Tomball,TX,77375,-95.633915,30.049348,sgeGxtsXfh
567,387 Christopher Circles,Belton,TX,76513,-97.563176,31.140431,AJSDLHtBSB
568,005 Stewart Place Apt. 196,Houston,TX,77096,-95.577864,29.75695,kbkloUprYt
569,98115 Shannon Court,Houston,TX,77071,-95.533736,29.756527,DjMCTcmvLZ
570,7809 Moore Springs Suite 798,Beeville,TX,78102,-97.857036,28.456918,DdOzhOJbKr
571,30660 Jamie Common,Pearsall,TX,78061,-99.181335,28.965156,XuVuyzIKRm
572,44540 Barry Isle,Pasadena,TX,77505,-95.2866,29.619835,VNvbRsgAmY
573,43719 Cervantes Estates,Big Spring,TX,79720,-101.578955,32.27448,wzseSxEJLA
574,71026 Andrew Street Apt. 485,Plainview,TX,79072,-101.867242,34.257253,uOxIMIiSTI
575,25299 Watson Place,Houston,TX,77075,-95.22893,29.620718,kSWJeOGJuL
576,03265 Dustin Fields,Rockwall,TX,75087,-96.566565,32.965308,nzrphPBqok
577,095 Cross Shoal Suite 050,Killeen,TX,76549,-97.845064,31.128501,KdpeTxENvF
578,2470 Singh View Apt. 466,Roanoke,TX,76262,-97.253869,33.04885,jePYGHaMHl
579,01487 Wanda Coves,Gatesville,TX,76528,-97.774169,31.415442,jbOxZYYwCz
580,42934 Suzanne Squares Apt. 947,Austin,TX,78704,-97.866844,30.225543,IgPoeamefy
581,11098 Jonathan Coves,Houston,TX,77071,-95.517319,29.766136,DJyJcDSKMR
582,1646 Meghan Motorway Apt. 117,Nacogdoches,TX,75961,-94.68433,31.678211,lOiRjdwdbJ
583,94662 Webb Field Suite 955,San Antonio,TX,78228,-98.61762,29.583241,vytoDJKGyt
584,46882 Anthony Drive,Cypress,TX,77429,-95.676991,30.027771,XSianJwCNt
585,100 Myers Hollow,Tyler,TX,75707,-95.313265,32.372382,PDaDsyIkAM
586,352 Brittney Green,Gainesville,TX,76240,-97.160184,33.68414,sUvfPTXBnr
587,34547 Michael Junction Apt. 771,Columbus,TX,78934,-96.573456,29.780998,iydBTWDaRZ
588,94213 David Harbor,Rowlett,TX,75088,-96.514295,32.972156,iuwKDBjuUU
589,133 Dawn Walk,Arlington,TX,76017,-97.139704,32.711753,FvikcIqpWJ
590,0602 Nelson Course,Hurst,TX,76054,-97.266727,32.850293,CcMogfhLWZ
591,3741 Poole Alley,Belton,TX,76513,-97.56171,31.114884,PEPkZYmAtM
592,679 Greer Street Apt. 905,Wichita Falls,TX,76302,-98.543134,33.923891,sFboJEaJgw
593,67332 Warren Rest Suite 225,Lancaster,TX,75146,-96.887821,32.625824,PgrMpYRxPv
594,5438 Wilson Locks Suite 457,Eastland,TX,76448,-98.882278,32.461036,iBQUBGSyXq
595,1797 Douglas Islands,Plano,TX,75074,-96.787197,33.067438,DfgdSuCdtE
596,2827 April Divide,San Antonio,TX,78264,-98.579983,29.365147,NAkoiXEmqa
597,561 Dana Shoals,Mansfield,TX,76063,-97.157465,32.676519,zoTEMuGlil
598,55851 Emily Harbors,Hereford,TX,79045,-102.463346,34.828045,qSXiFKnvXX
599,672 Jessica Loop,Katy,TX,77449,-95.77063,29.974608,dZqUvQeDna
600,238 Davis Roads,Harrisonburg,VA,22801,-78.97419,38.443527,NrsVgQTEdb
601,680 Rivera Mountains,Suffolk,VA,23435,-76.411649,36.950661,JhnGniFROz
602,465 Newman Via Apt. 525,Sterling,VA,20166,-77.424292,39.066826,adsSiuKQKX
603,2339 Angel Drive,Gloucester,VA,23061,-76.571254,37.446846,rdZrHDdLFX
604,413 Amanda Circles Suite 533,Bluefield,VA,24605,-81.358136,37.225069,JmBbOASKML
605,73540 Miller Crossing Apt. 344,Chesapeake,VA,23320,-76.253946,36.836818,DJScCTjoXn
606,715 Dillon Ports Suite 943,Culpeper,VA,22701,-78.024044,38.551351,dDVWYUNIhI
607,8810 Angela Heights Apt. 452,Salem,VA,24153,-80.15022,37.327989,rWyQltJtIS
608,448 Stephen Freeway,Forest,VA,24551,-79.389537,37.445543,gPGVbkvXjf
609,484 Hardy Fort Apt. 369,Roanoke,VA,24019,-79.954332,37.378946,scOtToLnIa
610,91983 Duane Shoal,Ashland,VA,23005,-77.449542,37.734925,yWXXobNtlS
611,260 Campos Brook Suite 505,Madison Heights,VA,24572,-79.135089,37.576029,YJVWNjKnFH
612,00024 Emily Fields Suite 054,Chantilly,VA,20151,-77.456098,38.946695,cZywgXPaDi
613,4190 Kristy Place Suite 069,Roanoke,VA,24013,-79.989673,37.375859,PxUjtZJNAo
614,9409 Salazar Lodge Suite 486,North Chesterfield,VA,23234,-77.589946,37.425181,eJKKUgasQN
615,4355 Cory Prairie Suite 817,Jonesville,VA,24263,-83.133867,36.761942,zzepJKfKiH
616,6522 Jessica Loaf,Danville,VA,24540,-79.474946,36.616909,OtklrhCKhN
617,46767 Hamilton Shores,Vienna,VA,22182,-77.216855,38.978904,KgLaWOunID
618,989 Christian Tunnel Suite 654,Suffolk,VA,23434,-76.661378,36.713769,BMfoIZlfHb
619,77170 Diana Harbors Apt. 930,Salem,VA,24153,-80.173611,37.356475,bDWwkkzjEt
620,06146 Deborah Tunnel Apt. 807,Winchester,VA,22602,-78.244179,39.138513,qsSwgYdrQR
621,888 Tracy Shores Apt. 309,Alexandria,VA,22306,-77.141052,38.856188,kGgxtLTIrK
622,15977 Rogers Greens,King George,VA,22485,-77.125027,38.411429,KzBsJALCOs
623,9285 Richard Terrace Suite 238,Roanoke,VA,24019,-79.947338,37.389039,YyvAOQWuqt
624,1021 Johnson Knoll,Newport News,VA,23601,-76.571552,37.179168,xoDihzfZoA
625,035 Joseph Crossroad,Norfolk,VA,23502,-76.271157,36.983936,vnIkmcBdMT
626,11070 Jennifer Brooks,South Boston,VA,24592,-78.950771,36.754995,khaCjUlaDm
627,344 Alan Summit Suite 090,Mechanicsville,VA,23111,-77.47783,37.669026,EuNmGquhtx
628,81492 Simmons Light,Henrico,VA,23223,-77.432687,37.563102,sZAilxPtdm
629,0097 Ramos Estates Suite 922,Haymarket,VA,20169,-77.652811,38.869272,OQPhzNHTBp
630,324 Khan Lock Suite 747,Virginia Beach,VA,23456,-76.08647,36.833726,DvrJuQKTsk
631,9364 Ball Shoal,Chesapeake,VA,23321,-76.416766,36.868537,IyzKUUHtGD
632,86481 Charles Viaduct,Roanoke,VA,24012,-80.075754,37.386024,XbaaeeuPxn
633,04145 Alexis Forge,Luray,VA,22835,-78.587256,38.763605,lEXxyAcXFo
634,333 Karina Dam,Lexington,VA,24450,-79.470243,37.846203,aEairzErsO
635,744 Cohen Passage Suite 235,Timberville,VA,22853,-78.81995,38.67494,lJkGlexYRT
636,2540 Stephen Estate,Appomattox,VA,24522,-78.84138,37.443786,JBpzjBAXKT
637,62198 Andrea Pass Suite 119,Newport News,VA,23602,-76.538283,37.148544,iKDzvAdMif
638,1440 Washington Hill Suite 862,Chesapeake,VA,23320,-76.287562,36.839105,FWUZtZwRAg
639,7401 Boyd Stream,Salem,VA,24153,-80.188941,37.313841,IhAJjnRbBx
640,6571 Kimberly Overpass Apt. 435,Lebanon,VA,24266,-82.07114,36.963552,KYiaYxJeTT
641,466 Powell Via,Harrisonburg,VA,22801,-78.98971,38.423843,npwsLFDSFH
642,2006 Munoz Mill,Alexandria,VA,22306,-77.180303,38.820329,NOgSHGzbEf
643,280 Jared Lane,Covington,VA,24426,-80.042532,37.862252,fVJPqAAxZt
644,97103 Davies Prairie Suite 041,North Chesterfield,VA,23234,-77.585859,37.479577,dhwBVFdlTU
645,068 Smith Hills Suite 649,Danville,VA,24540,-79.456149,36.621894,KiMYhdqrMQ
646,9295 Harrison Mountains,Timberville,VA,22853,-78.874713,38.632437,GNrcZpzkDN
647,58722 Barton Lights Apt. 401,Chester,VA,23831,-77.526416,37.446914,cjAIYAWKTF
648,8714 Ball Fort,Midlothian,VA,23112,-77.687248,37.451368,NhOpvTvEAm
649,4824 Michael Ridges Suite 347,Stafford,VA,22554,-77.474179,38.571144,rGZAwUyOVr
650,6681 Frazier Cove,Bristol,VA,24202,-82.158414,36.682553,OajdFhWLzt
651,508 Theresa Groves,King George,VA,22485,-77.128754,38.478116,gtAAGWrUnf
652,473 Gregory Rue,Jonesville,VA,24263,-83.135638,36.786941,MZTMdDdVHG
653,98124 Olson Mills,Franklin,VA,23851,-77.048753,36.768115,rATrWnMvcQ
654,44376 Love Point Suite 194,Norfolk,VA,23502,-76.224552,36.978514,oSnWLDAzFR
655,51869 Maria Station Suite 645,Gloucester,VA,23061,-76.516297,37.455705,MukpEVZfkS
656,2686 Jonathan Valleys,Rockingham,VA,22801,-78.930045,38.489628,yTyyinlSDQ
657,14479 Henderson Turnpike Suite 897,Richmond,VA,23230,-77.588858,37.667699,UneKKRvOKD
658,1283 Romero Grove,Richmond,VA,23227,-77.578317,37.689067,ZcKnEQOjnI
659,8641 Victor Manors Suite 808,Chesapeake,VA,23322,-76.365157,36.786732,LpOHDtHwbl
660,5951 Henderson Shoals,Charlottesville,VA,22901,-78.513796,38.119931,ZyMDusbxTU
661,382 Smith Lodge Suite 541,Hampton,VA,23666,-76.479013,37.048993,sGeyVRYQPP
662,7390 Robinson Pass Apt. 954,Haymarket,VA,20169,-77.658263,38.82073,GEEBzXdSCi
663,804 Delgado Garden Apt. 538,Ashland,VA,23005,-77.441237,37.730655,lGjeyTSvoo
664,82616 Ortega Ford Apt. 682,Farmville,VA,23901,-78.440504,37.383783,GCGwtQGbta
665,18469 Gonzalez Village,Manassas,VA,20110,-77.443028,38.883643,ULnupJbQOd
666,78080 Adam Field,South Boston,VA,24592,-78.928999,36.750008,WulaDgTtFF
667,2056 Margaret Square Suite 662,Mechanicsville,VA,23111,-77.470157,37.677485,bIMowYohec
668,953 Rivas Terrace,Virginia Beach,VA,23456,-76.125521,36.873453,bBLZFzltQO
669,95105 Robinson Road Apt. 163,Farmville,VA,23901,-78.43603,37.359871,PljUMzVQKl
670,851 Pena River,Vienna,VA,22182,-77.279777,38.937064,zablBBPZCv
671,157 Marc Via Suite 918,Haymarket,VA,20169,-77.68797,38.870841,WFypcWeZGU
672,221 Ryan Station,Dublin,VA,24084,-80.714567,37.130895,WsCEAwlrqi
673,7719 Monica Union Apt. 300,Fredericksburg,VA,22407,-77.534625,38.257814,wprsvwNWLy
674,8331 Wendy Underpass,Chesterfield,VA,23832,-77.784799,37.422113,EObgnKaSVE
675,7049 Tiffany Greens,Virginia Beach,VA,23464,-76.284387,36.833443,QzGLssZyXr
676,869 David Garden,Bluefield,VA,24605,-81.375851,37.214128,CoQHbaHnjS
677,862 Lang Port Apt. 828,Woodbridge,VA,22192,-77.380833,38.620113,ouCHOdyzZn
678,7216 Matthew Hill Apt. 589,Colonial Heights,VA,23834,-77.430329,37.2707,hRrXgMKEXC
679,73652 Jackson Oval Suite 397,Virginia Beach,VA,23452,-76.148593,36.825199,EmXAEmeOBR
680,229 Lucas Grove,Altavista,VA,24517,-79.314075,37.18559,EgyupUcJat
681,621 Johnson Island Apt. 189,Madison Heights,VA,24572,-79.172024,37.587202,JJIvxQhrzY
682,4955 Gill Shoal,Waynesboro,VA,22980,-78.973879,38.171576,tsWVedPoaW
683,09894 Justin Terrace Apt. 026,Gloucester,VA,23061,-76.554325,37.464867,FsypqUdBre
684,88571 Howard Falls,Chesterfield,VA,23832,-77.76822,37.475162,bMrqKgBDKE
685,303 Fuentes Roads,Norfolk,VA,23502,-76.260461,36.983334,RkPdUFbYiY
686,463 Cooley Prairie,Woodbridge,VA,22192,-77.332154,38.63964,nRICoMdaOh
687,008 Zachary Junction Apt. 960,Big Stone Gap,VA,24219,-82.869476,36.989145,TvoNkQVmZQ
688,27386 Singleton Valleys Suite 703,Norfolk,VA,23505,-76.372553,36.92846,FXeYOHWAaN
689,44484 Boyd Mountains,Haymarket,VA,20169,-77.636461,38.863229,WENzTDsrPS
690,189 John Extensions Apt. 141,Winchester,VA,22603,-78.285158,39.237375,AbYCieyIov
691,012 Russell Mission,Virginia Beach,VA,23453,-76.184092,36.847222,AqRpiGfEgp
692,829 Hall Rapid,Danville,VA,24540,-79.429796,36.6534,bgyvHxvftL
693,08531 Cameron Lake,Colonial Heights,VA,23834,-77.424859,37.269699,foCeKoslIZ
694,43786 Ryan Mount,Waynesboro,VA,22980,-78.930541,38.136724,ESMrmguhQw
695,5206 Long Valley Suite 314,Dublin,VA,24084,-80.724964,37.11815,SANwZwyVeA
696,95438 Chambers Springs,Leesburg,VA,20176,-77.587762,39.13593,iFBVdIWggC
697,31326 Dawson Summit Apt. 849,Sterling,VA,20166,-77.430504,39.062666,kJmcbDaXxH
698,4875 Garrison Lane Suite 532,Lebanon,VA,24266,-82.029466,36.920033,kieUGypUQH
699,54061 Crystal Manors Apt. 705,Burke,VA,22015,-77.337835,38.851157,VGnMXaMDWA
700,91905 Armstrong Ville Apt. 805,Westfield,MA,1085,-72.720776,42.125996,cqPWJJGWPH
701,891 Johnson Crossing Apt. 913,Quincy,MA,2169,-71.034033,42.236358,vgIZuclWes
702,9149 Tucker Lodge Apt. 621,Raynham,MA,2767,-71.042442,41.911933,KzFilAHpLD
703,11718 Jennifer Inlet,Hanover,MA,2339,-70.835254,42.165549,NQaWAGeBRJ
704,3387 Denise Greens Apt. 071,Abington,MA,2351,-71.019012,42.123319,dYlNvQHatY
705,94403 Reginald Coves Suite 122,Leominster,MA,1453,-71.744492,42.515001,bSVfesgFTl
706,38079 Jeffrey Ranch,North Oxford,MA,1537,-71.960372,42.250399,pMGSdTXcny
707,68221 Jones River Suite 703,North Adams,MA,1247,-73.170926,42.757135,ohoUlzfcpT
708,81423 Zachary Bridge Apt. 596,Leominster,MA,1453,-71.735198,42.579942,GbFUaRVnSy
709,58353 Morgan Trace Apt. 226,Leominster,MA,1453,-71.760712,42.526976,xBoZmedlvb
710,534 Roberts Highway,Chelmsford,MA,1824,-71.441955,42.681801,cPQRpuZEuw
711,5564 Conway Mews Suite 736,Raynham,MA,2767,-71.013769,41.952748,DNzAeYDfsR
712,552 Thomas Vista,Wareham,MA,2571,-70.720989,41.859489,BanFodIwGw
713,28911 Anthony Wells Suite 619,Chicopee,MA,1020,-72.679357,42.236962,PgiatrhlyT
714,192 Karina Parks Suite 838,Raynham,MA,2767,-71.038846,41.970047,buFoowdYPF
715,1547 Chloe Trail Apt. 553,North Adams,MA,1247,-73.141617,42.76686,eBRyfbvDZB
716,944 Sarah Locks Suite 640,Ware,MA,1082,-72.379671,42.230108,tFpzLBVWVj
717,550 Holland Union,Methuen,MA,1844,-71.289404,42.713842,HbNpfbdZSC
718,358 Robert Square Suite 002,Springfield,MA,1119,-72.579972,42.169715,IvdnrmXPKL
719,4965 Lisa Stravenue Apt. 347,Bellingham,MA,2019,-71.552696,42.152826,RdmhKUgxxc
720,6089 Zavala Spurs,Orange,MA,1364,-72.366241,42.622392,JrZnPTfhoZ
721,540 Parker Ferry,Chelmsford,MA,1824,-71.489481,42.643484,zwYNdRRPga
722,6394 Soto Island Apt. 132,Hadley,MA,1035,-72.640923,42.459401,bQvoVInvUI
723,768 Kenneth Village Suite 342,Westfield,MA,1085,-72.760324,42.179215,LzvApFfSGd
724,078 Timothy Points,Fairhaven,MA,2719,-70.9815,41.646752,JebvpwJoSg
725,68438 Sara Route Apt. 529,Plymouth,MA,2360,-70.760993,42.079296,UsjJnKssuq
726,8925 Carter Crossing Suite 151,Chelmsford,MA,1824,-71.440787,42.668656,eoVvewJlLo
727,672 Beth Drive Apt. 699,Methuen,MA,1844,-71.257621,42.728936,CXoWRYXJio
728,142 Jennifer Rapid Suite 887,North Adams,MA,1247,-73.127257,42.713419,SBHHQYmCol
729,327 Hudson Keys,Swansea,MA,2777,-71.276598,41.815742,lHDuomLBSm
730,15790 Mccarty Rapids,North Adams,MA,1247,-73.160026,42.742914,rgOtmHcuGB
731,320 Mary Stream Suite 352,Fall River,MA,2721,-71.174507,41.712342,DjbTRYYAhV
732,33838 Jennifer Garden,Hanover,MA,2339,-70.830425,42.174524,XGzTgfsXvd
733,6376 Jacob Burg,Abington,MA,2351,-71.089014,42.131795,qADEgZVDWP
734,73134 Peterson Fords Apt. 885,Methuen,MA,1844,-71.2689,42.735596,xNRoOEXePa
735,91741 Bowen Island,Sturbridge,MA,1566,-72.153244,42.146443,WltoPmdTIp
736,6843 Heather Dale,North Oxford,MA,1537,-71.976548,42.237575,bTdHbsDkRr
737,4689 Nicole Cliffs Suite 717,Brockton,MA,2301,-71.137502,42.118308,EEVMHDSpLu
738,18334 Michelle Forge Apt. 596,Salem,MA,1970,-70.950588,42.517137,rlgjxslFmW
739,845 Martin Track Suite 286,Sturbridge,MA,1566,-72.173906,42.185689,ffgvcXZWAC
740,48237 Anthony Ways Apt. 161,Swansea,MA,2777,-71.287783,41.816765,RWqKvEyEfy
741,127 Miller Mount Suite 111,Lunenburg,MA,1462,-71.850693,42.670046,ibSnDpJTCg
742,8654 Jeanette Forges Suite 978,North Dartmouth,MA,2747,-71.053566,41.659418,LzlYHIMDnr
743,056 Laura Ford Suite 733,Quincy,MA,2169,-71.037741,42.215208,mVBmNjSHFH
744,2515 Hill Valleys Apt. 006,Raynham,MA,2767,-71.038402,41.928478,hDSNdxtTYf
745,76714 Stephanie Tunnel Apt. 682,Seekonk,MA,2771,-71.359024,41.846075,RCUzAZPGzc
746,248 Stephanie Place,Leominster,MA,1453,-71.762415,42.518558,TadcyepwIf
747,1732 John Neck,Sturbridge,MA,1566,-72.110393,42.177057,CusBswPViX
748,62453 Douglas Isle,Ware,MA,1082,-72.360708,42.259466,owmupIGDmE
749,06269 Barry Crescent Apt. 953,Worcester,MA,1607,-71.855907,42.271145,QnwgctkNAr
750,90992 Jackson Square,Hadley,MA,1035,-72.647063,42.438923,YIjLuSutjb
751,6923 Tammy Roads Suite 176,Methuen,MA,1844,-71.271221,42.762648,zlBNeabsSR
752,441 Scott Roads Apt. 738,North Oxford,MA,1537,-71.925494,42.255953,FAWOChHaco
753,80955 Alicia Heights Apt. 839,Pittsfield,MA,1201,-73.217748,42.587339,DEJHzgCvaQ
754,715 Lee Club Apt. 007,Chicopee,MA,1020,-72.680563,42.245987,EfFhULyGCS
755,64665 Mcclure Tunnel,Ware,MA,1082,-72.360153,42.249213,PCiHOdXnsb
756,81594 Johnson Trail Apt. 808,Abington,MA,2351,-71.01851,42.158517,kGYRmaxxwO
757,562 Tammy Shoals,Gardner,MA,1440,-72.0453,42.666071,NomdDterPE
758,059 Johnathan Well,Raynham,MA,2767,-71.010366,41.966242,WBWHVuXiMu
759,0328 Terry Skyway,Teaticket,MA,2536,-70.61308,41.610611,OIPAcPUmkG
760,530 Hunter Unions Apt. 279,North Adams,MA,1247,-73.169744,42.716245,xNmQfeaDaV
761,65561 Charles Path Apt. 406,Whitinsville,MA,1588,-71.746979,42.144652,sskifnTYsH
762,129 Mark Centers Apt. 745,Chelmsford,MA,1824,-71.458334,42.668774,ygWUlbIrUK
763,9541 Davis Dale Apt. 349,Chelmsford,MA,1824,-71.441854,42.628471,ssgGRRexRj
764,3988 Mercer Harbors,Lynn,MA,1905,-71.089541,42.44033,ogDHFIbZrW
765,595 Bradley Isle,Teaticket,MA,2536,-70.675163,41.661012,ANOmQBKUSx
766,160 Knight Squares Suite 149,Worcester,MA,1607,-71.856002,42.239271,AdJJmwZnBY
767,84324 Garcia Ports Apt. 668,Teaticket,MA,2536,-70.660225,41.631503,jOTuZyCrZg
768,3826 Melissa Green,West Boylston,MA,1583,-71.828266,42.445623,OxrrNRBoFV
769,554 Jody Flats,Whitinsville,MA,1588,-71.759212,42.113722,gZIGjGwbOv
770,755 Jason Drives Suite 107,Hadley,MA,1035,-72.614246,42.426126,GzWOhifInR
771,0325 Case Drive,North Attleboro,MA,2760,-71.474744,41.942323,FQoRZMFXSN
772,7373 Michael Fork,Avon,MA,2322,-71.021065,42.125412,lNcvadBGuO
773,444 Gabriel Canyon,North Oxford,MA,1537,-71.989777,42.253343,qWoSnBvqtn
774,534 Cody Well,Halifax,MA,2338,-70.880912,42.059169,LFXmqdQXQq
775,54229 Richard Bypass,North Adams,MA,1247,-73.126511,42.757857,zvaWHphNIL
776,62368 Roy Orchard Suite 912,Quincy,MA,2169,-71.070572,42.217355,ihQCuccUdb
777,9926 Martinez Path Suite 544,Avon,MA,2322,-71.017228,42.11568,dsirTGnAxp
778,606 Williams Prairie,Salem,MA,1970,-70.967486,42.540895,EbOuGmYnMY
779,273 Berg Landing Apt. 512,North Dartmouth,MA,2747,-71.042758,41.645628,GVBxXbfBud
780,23252 Shields Overpass Apt. 035,West Boylston,MA,1583,-71.836295,42.484044,ObvVlXIdMW
781,38977 Dale Rest,Northborough,MA,1532,-71.754333,42.36178,uowOKQZmor
782,1265 Roberts Hills Apt. 227,Walpole,MA,2081,-71.224761,42.16415,DKkbnqPCuZ
783,21038 Jenkins Bypass,Fairhaven,MA,2719,-70.961971,41.615262,OYJwNgPuBX
784,697 Sabrina Lock,Plymouth,MA,2360,-70.718721,42.027857,avrajDsZiy
785,8941 Amy Parkway Apt. 631,Fall River,MA,2721,-71.18894,41.713607,gIsoPMDZQQ
786,12809 Acosta Plaza,Ware,MA,1082,-72.373927,42.27472,xAwqiIXKTt
787,7862 Christine Villages Suite 644,Halifax,MA,2338,-70.867938,42.058886,RGKvJbyuQY
788,1087 Amanda Brooks Suite 076,Gardner,MA,1440,-72.085479,42.610561,JGrpSECKKx
789,95882 Heather Circle Apt. 601,Swansea,MA,2777,-71.252785,41.846519,TRINwRzjHA
790,781 Edwards Park,Westfield,MA,1085,-72.759058,42.132627,FOpQyUdHCC
791,07403 Claire Glens,Leicester,MA,1524,-71.913626,42.356512,SOOLtpcAXd
792,315 Brown Island Apt. 816,North Dartmouth,MA,2747,-71.060665,41.62346,yZoKmrWHpg
793,556 Gregory Crest Apt. 462,Saugus,MA,1906,-71.011776,42.544321,saxjxALdQt
794,90898 Vernon Court Suite 193,Raynham,MA,2767,-71.120903,41.926775,NZlaCXOzCk
795,1019 Mark Place Suite 537,Springfield,MA,1119,-72.582853,42.125767,kaAudIXIxx
796,08930 Tiffany Unions Apt. 301,Quincy,MA,2169,-71.035216,42.2182,oTTbEhfCFC
797,91245 Byrd Bridge,Gardner,MA,1440,-72.051258,42.688097,MZHSewdObk
798,95081 Burton Center Suite 469,Hudson,MA,1749,-71.613099,42.47712,UhgGwfcJyF
799,759 Manuel Valleys,Danvers,MA,1923,-71.030506,42.681707,yoYyFMzkUT
800,84581 Marsh Rest Apt. 203,East Ellijay,GA,30540,-84.58722,34.782392,ZhxpipFqtO
801,835 Jane Hollow,Marietta,GA,30008,-84.631021,33.922685,PxEOMogDxj
802,86343 Webb Turnpike Apt. 869,Stockbridge,GA,30281,-84.253309,33.570042,NGuqtRdpOo
803,075 Vargas Knolls,Peachtree City,GA,30269,-84.632608,33.456896,anQsDrVYiH
804,947 James Plains,Lawrenceville,GA,30044,-84.171856,33.912542,uGLaZaXjNW
805,20395 James Junction,Snellville,GA,30078,-84.017231,33.923444,GFMuceEWRb
806,128 Garcia Court,Atlanta,GA,30316,-84.31577,33.757641,xFDjrJndSo
807,86864 Lisa Mission Apt. 700,Roswell,GA,30076,-84.365944,34.030948,hhBVVksZoq
808,5636 Harris Lights,Chamblee,GA,30341,-84.310252,33.933124,OkIAKoAAEd
809,130 Davis Vista Apt. 602,Dawsonville,GA,30534,-84.054042,34.481403,RpCZowfzKg
810,34006 David Camp Suite 453,Augusta,GA,30909,-82.149192,33.533344,GnwZLGfrPk
811,274 Cuevas Throughway Apt. 525,Columbus,GA,31903,-84.952804,32.420149,xcItmRyPIA
812,4156 Reynolds Ridge,Vidalia,GA,30474,-82.461258,32.236959,TlKXDCScdd
813,4138 Williams Ford,Duluth,GA,30096,-84.275183,34.079389,zJrnhBYrUO
814,5278 Cook Terrace,La Fayette,GA,30728,-85.389058,34.761257,XmqICPbIah
815,2325 Friedman Cape Apt. 732,Cordele,GA,31015,-83.821004,32.073527,OCtvkDDbaX
816,549 Davis Ford Apt. 397,Savannah,GA,31406,-81.178711,32.062831,vjIEEIoApv
817,246 Linda Squares Suite 123,Eatonton,GA,31024,-83.415615,33.312425,kpDWCCVncS
818,714 Rose Wells Apt. 322,Columbus,GA,31904,-85.051553,32.535436,NhMcEXWycD
819,991 Bryant Village Suite 976,Fayetteville,GA,30214,-84.460088,33.553387,MHqmzQhwEW
820,0580 Shields Shoal,Statesboro,GA,30458,-81.830173,32.418363,cGaimoVOxV
821,69929 Cole Ramp Suite 864,Albany,GA,31707,-84.215029,31.670087,DdDtqsgQBH
822,214 Brooke Lodge Apt. 878,Jasper,GA,30143,-84.558534,34.58752,fmqgwsLJYr
823,5498 Shawn Forks,Columbus,GA,31909,-84.978546,32.523352,jZZqGFvPBU
824,26916 Osborne Avenue,Columbus,GA,31904,-85.021122,32.584789,aPmvhnREEU
825,329 Harold Mews Suite 407,Savannah,GA,31406,-81.122531,32.052967,qGZtilRasb
826,99526 Johnson Place Apt. 884,Cochran,GA,31014,-83.355349,32.486915,dhbDXCgnyK
827,9543 Smith Stravenue Apt. 234,Alpharetta,GA,30004,-84.269522,34.287018,pYJngOfcQQ
828,86929 Rosario Islands Suite 596,Dublin,GA,31021,-83.076108,32.645578,jgzUjHKgzt
829,77599 Wheeler Ferry Suite 973,Fitzgerald,GA,31750,-83.237622,31.76405,zayvBMbJxp
830,511 Hall Loop Apt. 427,Stockbridge,GA,30281,-84.279641,33.585235,QSoVKbehrk
831,5650 Dustin Hill,Alpharetta,GA,30004,-84.241038,34.262304,zScASuXvYd
832,53637 Harris Lodge,Lovejoy,GA,30250,-84.321257,33.462005,UXNYLVQZHQ
833,765 Lang Coves Apt. 236,Warner Robins,GA,31088,-83.618686,32.675803,cokjmiUZnI
834,0675 Thomas Road Suite 819,Savannah,GA,31406,-81.126491,32.07025,AgTQkjKiZE
835,675 Mendoza Crossroad Suite 312,Atlanta,GA,30331,-84.541194,33.750467,JGaZUwokrG
836,753 Flores Grove,Bainbridge,GA,39819,-84.634586,30.947186,IdimqyWFGy
837,01038 Michael Row Suite 433,Grovetown,GA,30813,-82.265852,33.533841,GMhtfKckqE
838,6976 Tiffany Street,Warner Robins,GA,31088,-83.659959,32.673372,tABhaoXtXL
839,9416 Franco Causeway,Snellville,GA,30039,-84.03944,33.855998,qMHADurzvK
840,78165 Julie Walks Apt. 636,Cedartown,GA,30125,-85.249674,34.047023,VhdTqaAMfA
841,49976 Laurie Port Suite 159,Dublin,GA,31021,-83.068675,32.622693,rCEcsMhtvR
842,2748 Tyler Expressway,Thomson,GA,30824,-82.524809,33.577871,IXlNgTLuFY
843,1620 Jamie Square,Cartersville,GA,30121,-84.878792,34.217828,BCPKEpYSqV
844,4059 Frazier Field Suite 145,Marietta,GA,30062,-84.51434,34.021624,CZUMxGVWoZ
845,1505 Gonzalez Parkway Suite 683,Valdosta,GA,31605,-83.354357,30.913802,AZHmhyylQl
846,4995 Mark Unions,Albany,GA,31705,-84.118205,31.6412,iSEHihxzbQ
847,85277 Ronald Motorway Apt. 399,Winder,GA,30680,-83.835917,34.028657,VtyisDbAQZ
848,4892 Corey Highway Suite 026,East Point,GA,30344,-84.462067,33.779724,dcVKlfMkAx
849,2611 Mccarthy Locks,Winder,GA,30680,-83.818254,34.043228,HeQfUsQxKq
850,15689 Torres Meadow,Dunwoody,GA,30360,-84.385675,33.939368,heubRHTYCn
851,020 Kelly Mission,Thomasville,GA,31757,-83.969852,30.927523,ZOrjMHSGLu
852,1928 William Islands,Marietta,GA,30066,-84.663598,34.080643,qWywcOYIYD
853,32692 Nguyen Square,Waycross,GA,31503,-82.35746,31.266648,HHaQiAKSSP
854,8882 Laura Crossroad Apt. 169,Statesboro,GA,30458,-81.871486,32.455753,FyZykOqkBz
855,20564 Ellen Valley,Brunswick,GA,31525,-81.566003,31.266045,bvEIqwrEYe
856,691 Dennis Trace Apt. 001,Marietta,GA,30066,-84.669064,34.07384,znDwOxyzlZ
857,41006 Wolfe Knoll,Brunswick,GA,31525,-81.530721,31.272407,ECXwvRObYH
858,347 Deanna Well,Lovejoy,GA,30250,-84.312062,33.479229,BoMrPolbdt
859,50110 Kathryn Lights Suite 316,Statesboro,GA,30458,-81.883966,32.442603,aALkwQsgJI
860,1718 Navarro Knoll Apt. 335,Cartersville,GA,30121,-84.856301,34.228992,JVgMTUeOfr
861,2854 Chavez Land,Dublin,GA,31021,-83.08483,32.655161,YTxgxMqWLL
862,11982 Sheri Creek,Marietta,GA,30062,-84.415191,34.066122,syoUDriyGD
863,5334 Chavez Valleys,Marietta,GA,30008,-84.621469,33.911403,AGgkFgmsNL
864,3128 King Station,Winder,GA,30680,-83.888084,34.051363,uwsKNYeaIP
865,0920 Jennings Cliffs,Clayton,GA,30525,-83.415928,34.972714,WArdoUMtrX
866,88399 Timothy Mission Suite 231,Atlanta,GA,30318,-84.44845,33.865645,JDtjhzsBTb
867,3162 Edwards Hollow Apt. 798,Villa Rica,GA,30180,-84.973702,33.726881,rnPiXhGkGc
868,349 Brady Burgs Apt. 174,Griffin,GA,30223,-84.329408,33.326906,pmVsROyVPW
869,60423 Brett Underpass,Marietta,GA,30062,-84.537924,34.016153,bjvjNiMrsa
870,1876 Gould Forks,Brunswick,GA,31525,-81.586386,31.213093,dfIlTTiujf
871,335 Lee Landing Apt. 978,Alpharetta,GA,30004,-84.368855,34.122333,UAWdHTLGuc
872,58219 James Freeway,Dalton,GA,30720,-85.010469,34.822829,rZRZreWAbE
873,1937 Dunn Causeway Suite 888,Griffin,GA,30223,-84.311212,33.375176,ZpmJAWlgbE
874,26653 Norris Neck,Eastman,GA,31023,-83.226144,32.247909,FccUMIGtVt
875,813 Christine Forges Apt. 138,Lawrenceville,GA,30044,-84.02761,33.925022,RdwMUIPRIE
876,32470 Cole Plaza Suite 723,Eastman,GA,31023,-83.277806,32.216493,NcEhXlnwfy
877,3159 Brooke Mill Suite 151,Stone Mountain,GA,30083,-84.235847,33.863922,kFILhhcYyD
878,6740 Amy Crossroad Suite 811,Statesboro,GA,30458,-81.830037,32.422219,ktyyslptPh
879,24189 Barrera Parks,Lithonia,GA,30038,-84.222968,33.787529,bDEjvzdXKf
880,743 Megan Terrace Apt. 578,Norcross,GA,30093,-84.21231,33.98383,JSHvpRBWtd
881,76788 Johnson Park,Camilla,GA,31730,-84.231445,31.266003,BiIOObTCjk
882,51662 Robinson Mount,Columbus,GA,31907,-84.936068,32.571746,ovaxlIKcOQ
883,890 Morgan Plaza Suite 961,Conyers,GA,30013,-84.017655,33.745789,AaaabdlnGq
884,126 George Port Suite 227,Morrow,GA,30260,-84.383638,33.633898,oWCeyghAYy
885,6368 White Squares,Lawrenceville,GA,30044,-84.049003,33.951789,bDTiBnhTwI
886,252 Kent Circles,Marietta,GA,30062,-84.557282,34.069675,YuRwjjhBQF
887,2263 Doyle Park Suite 919,Snellville,GA,30078,-84.03251,33.942588,ouXDiNoqRz
888,711 Angela Via,Fitzgerald,GA,31750,-83.212655,31.748754,NOhfmMoWCe
889,0774 Melissa Ports Suite 948,Douglasville,GA,30134,-84.869749,33.767387,vDbMrsYIBt
890,92162 Clarence Causeway Apt. 641,Dunwoody,GA,30338,-84.348711,33.931914,ghprhFuUpU
891,772 Evelyn Rapid Suite 628,Grovetown,GA,30813,-82.282434,33.539793,PlFJFdUlTd
892,450 Roman Spring Apt. 994,Savannah,GA,31408,-81.250885,32.125812,aeMMplVqve
893,67599 Caitlin Divide Suite 393,Kennesaw,GA,30152,-84.727788,34.042185,eXBMqaIPrt
894,1370 Hill Prairie Apt. 364,Tifton,GA,31793,-83.56007,31.413677,ZnPuLSMFBn
895,09152 Haas Walks,Valdosta,GA,31602,-83.33001,30.967462,RzSeRhhQTT
896,01337 Andrew Unions,Stone Mountain,GA,30083,-84.226955,33.834442,qVHAjWQNdm
897,8372 Solis Meadow,Albany,GA,31705,-84.157554,31.623007,HzDivLaadH
898,23739 Felicia Mount Suite 981,Acworth,GA,30101,-84.725601,34.024835,DzZqhSivEB
899,005 Jennifer Gardens,Fitzgerald,GA,31750,-83.249774,31.729549,XNJGNejdvE
900,3080 Sabrina Corner,Norman,OK,73071,-97.466791,35.218305,pAsqzMnjqI
901,13781 Jillian Light Suite 907,Okmulgee,OK,74447,-96.048974,35.631179,EPwLGLuHla
902,2342 Alicia Manors,Midwest City,OK,73110,-97.476021,35.575723,BJShditcIq
903,12265 Tina Rapid Apt. 223,Oklahoma City,OK,73119,-97.575633,35.460675,BAYOQqDLdx
904,3250 Christine Falls,Broken Arrow,OK,74012,-95.84071,36.167841,TPVwHUgPPJ
905,7586 Becker Greens,Okmulgee,OK,74447,-96.045642,35.630857,fcKOSnrgYH
906,29144 Decker Trail,Cleveland,OK,74020,-96.571456,36.322227,RZFovJoTas
907,393 Hall Spur,Edmond,OK,73034,-97.448461,35.685484,eTEIdhsKuN
908,4383 Jennifer Pass,El Reno,OK,73036,-98.037054,35.546768,QadqiDadbz
909,7072 Turner Course Suite 948,Ada,OK,74820,-96.771816,34.857793,FqOSurHiAN
910,4073 Sarah Mountain Apt. 183,Broken Arrow,OK,74011,-95.8153,36.079974,GDeQXkFzey
911,9825 Michael Brook Apt. 624,Yukon,OK,73099,-97.717068,35.52061,ARESAHSUoU
912,823 Neal Unions Apt. 239,Guthrie,OK,73044,-97.426587,35.927759,UUEODRAPJa
913,0964 Wendy Extension,Tahlequah,OK,74464,-95.055578,35.988946,wWZpTSyGEP
914,26488 Samantha Corners Suite 392,Owasso,OK,74055,-95.816181,36.379023,POcarMymVZ
915,48147 Mark River,Tulsa,OK,74114,-95.929076,36.129343,QTuVIShtlE
916,5215 Lopez Stream Apt. 564,Edmond,OK,73034,-97.477607,35.612308,fDxHtRASXc
917,6265 Holly Center Apt. 103,Oklahoma City,OK,73107,-97.657169,35.570507,dnVHpzjhie
918,8750 Justin Avenue Suite 696,Chandler,OK,74834,-96.864758,35.715618,DoiElszIbm
919,3226 Laura Drives,Oklahoma City,OK,73109,-97.569212,35.469012,VZvObzLClO
920,95228 Adkins Island,Edmond,OK,73013,-97.574724,35.61667,gHpjtDFVOn
921,084 Jacob Locks Apt. 616,Stilwell,OK,74960,-94.617041,35.858646,fEUGuyNJVV
922,6387 Wood Meadow Apt. 389,Chickasha,OK,73018,-97.942687,35.082702,nZWZENnErD
923,541 Melissa Rapids Apt. 258,Yukon,OK,73099,-97.769799,35.578425,HCaRhByOqO
924,8285 Sweeney Coves Apt. 373,Broken Arrow,OK,74012,-95.85763,36.077787,YPaqLmROGe
925,69953 Karen Circle,Sapulpa,OK,74066,-96.161886,36.032472,DiISLfIYyL
926,90504 Chapman Drives Suite 703,Pauls Valley,OK,73075,-97.277555,34.758948,UJiBHYbgEa
927,105 Perez Summit,Tulsa,OK,74105,-96.024428,36.157212,YLYfPJGiNn
928,8621 Alan Harbors Suite 816,Edmond,OK,73034,-97.533611,35.784917,YjJfKkQgYq
929,98320 Hall Green,Hugo,OK,74743,-95.568346,34.063642,ruBaKliOiu
930,98645 Kristy Course,Atoka,OK,74525,-96.118037,34.473335,WxcVkUbVWQ
931,611 Maria Junctions,Stillwater,OK,74074,-97.186645,36.161118,ZHLlvAEHvC
932,013 Reynolds Fords Suite 631,Oklahoma City,OK,73141,-97.448162,35.569045,qPYyHyfldJ
933,7735 Montes Hollow,Enid,OK,73703,-97.980363,36.411753,NDSJBMUqTa
934,7859 John Locks Suite 081,Alva,OK,73717,-98.688264,36.886713,BttRTVLzhr
935,3955 Tammy Corner,Alva,OK,73717,-98.624918,36.874132,SJJdRUVZgU
936,48488 Robert Island,Midwest City,OK,73110,-97.41756,35.544287,ejTOYTouNL
937,49542 Robert Walk,Tulsa,OK,74137,-96.028553,36.050303,eNeXHchkrm
938,1518 Cody Camp Apt. 568,Oklahoma City,OK,73170,-97.632673,35.347926,KXIqnAEmxQ
939,026 Lynn Rue Suite 206,Owasso,OK,74055,-95.886477,36.377224,ZTxPtmnkCD
940,825 Wilcox Passage Apt. 360,Idabel,OK,74745,-94.885186,33.925779,ekPzHIkIGu
941,666 Randy Gateway,Jay,OK,74346,-94.877182,36.438578,oCPtXAExRY
942,904 Finley Spurs Suite 662,Broken Bow,OK,74728,-94.739624,34.029069,pfrqoyxoOc
943,8772 Wagner Port Apt. 656,Oklahoma City,OK,73118,-97.525381,35.54231,PQyYaqCDve
944,851 Cook Island,Blackwell,OK,74631,-97.37142,36.838358,pxZhwBeptN
945,0017 Page Creek,Oklahoma City,OK,73115,-97.448542,35.4805,qlkocAdrLh
946,86431 Freeman Causeway Suite 893,Oklahoma City,OK,73159,-97.611599,35.461157,pmfnmltWLy
947,004 Walker Spring Suite 471,Owasso,OK,74055,-95.84838,36.356728,OBCxKOpjVH
948,2730 Raymond Flat,Oklahoma City,OK,73170,-97.687672,35.331491,HqkIPEsnhH
949,85810 Gabriel Lodge Suite 280,Lawton,OK,73505,-98.431091,34.655105,qlVrXxHDDO
950,3051 Danielle Expressway,Muskogee,OK,74401,-95.441359,35.879421,UURgQQFEkc
951,924 Michael Estates,Sand Springs,OK,74063,-96.134361,36.174214,RCbIPmzkNa
952,1477 Ruiz Isle Apt. 511,Tulsa,OK,74137,-96.069275,36.055728,OZTVXExbAK
953,284 Trujillo Lock,Henryetta,OK,74437,-96.051932,35.451644,TXIOQBcSyz
954,71961 Simmons Road,Woodward,OK,73801,-99.437811,36.470625,jLZQiLVxct
955,231 Holmes Trafficway,Guymon,OK,73942,-101.575989,36.761499,mnBzqpHfuJ
956,5812 Karen Canyon,Broken Arrow,OK,74012,-95.836272,36.15049,xoecdqrzOP
957,46499 Burton Brooks Suite 305,Norman,OK,73071,-97.41129,35.279892,XGDYXlzlYH
958,4004 Mckay Vista,Jay,OK,74346,-94.848563,36.474923,WhfwpiWFQf
959,15407 Fitzgerald Ranch,Oklahoma City,OK,73162,-97.669499,35.622283,veYsBUSYMy
960,181 Obrien Loaf,Oklahoma City,OK,73149,-97.526962,35.437197,USPiccrUBj
961,01855 Hines Walk,Tulsa,OK,74133,-95.956809,36.010188,NBzyutPCFU
962,833 Christopher Summit Apt. 894,Midwest City,OK,73110,-97.450663,35.580762,bnJOgGHmfU
963,53333 Sanchez Trafficway,Sapulpa,OK,74066,-96.164841,36.027485,yAybuXcREC
964,20955 Mcgee Route Apt. 075,Wagoner,OK,74467,-95.444625,36.026599,nlZGVLDAnr
965,2048 Lisa Grove Apt. 682,Stigler,OK,74462,-95.128358,35.369403,HgeLpNxBZp
966,89005 Joanna View,Norman,OK,73069,-97.578115,35.266261,GoajgABpYI
967,79278 Keller Pine Apt. 717,Muskogee,OK,74401,-95.428344,35.867861,xdkeWDBdwQ
968,39350 Jennifer Route,Stillwater,OK,74074,-97.166757,36.126819,zUmzpdaDbE
969,6371 Barnett Passage Suite 478,Moore,OK,73160,-97.563776,35.349828,JecgpnUicI
970,42850 Davies Cape,Grove,OK,74344,-94.867356,36.649949,JFQeoRzhLx
971,59006 Crawford Islands,Shawnee,OK,74804,-96.979423,35.471398,nxMNIXQlZC
972,21060 Robert Isle,Lawton,OK,73505,-98.519911,34.635566,yTuqlWnhih
973,102 Watson Mills,Miami,OK,74354,-94.946072,36.952984,nMKvaUNhjG
974,344 Moore Ville,Chickasha,OK,73018,-97.924987,35.085208,bGyaDWjlBe
975,09805 Rivera Trafficway,Duncan,OK,73533,-98.076863,34.569458,PJUzeZJzYs
976,27820 Shelby Lane,Sallisaw,OK,74955,-94.815773,35.565817,vsibuGXsuS
977,6005 Amanda Trace Apt. 361,Jenks,OK,74037,-96.085013,36.05936,ITtfOQjFLG
978,026 Dean Common Apt. 035,Oklahoma City,OK,73127,-97.670011,35.58588,XoZuFmJSFs
979,98816 Sanchez Via,Guthrie,OK,73044,-97.440156,35.910589,BvOxGvBjoA
980,41545 Burns Fort Suite 296,Oklahoma City,OK,73119,-97.514044,35.4647,GEvWoxnbnd
981,892 Erik Street Suite 002,Kingfisher,OK,73750,-97.979589,35.813143,tHnFsqppZS
982,943 Thompson View Suite 989,Oklahoma City,OK,73132,-97.741888,35.624379,FDmTIsnpeQ
983,085 Williams Village,Stillwater,OK,74074,-97.16045,36.110484,mZzreRUcKd
984,383 Ramirez Lane,Broken Arrow,OK,74014,-95.763292,36.150383,SSInjddktg
985,585 Brent Street,Lawton,OK,73505,-98.474209,34.663373,wDJCIIdiEO
986,208 Cannon Pike Suite 225,Tulsa,OK,74105,-96.066788,36.172587,qpznUklsaP
987,717 Marcus Light Apt. 699,Anadarko,OK,73005,-98.350108,35.121754,ayjwBHobdU
988,2630 Wells Wells Apt. 395,Tulsa,OK,74135,-95.949721,36.132871,nmeCEhkWeu
989,918 Sherry Bridge,Wagoner,OK,74467,-95.48277,36.085973,NiSuatAGmU
990,49217 Ryan Hills,Warr Acres,OK,73132,-97.661074,35.549265,GPpnYCxRXT
991,070 Norris Mountains,Madill,OK,73446,-96.879923,34.160422,QhJLSHJctz
992,5266 Megan Tunnel,The Village,OK,73120,-97.522019,35.661477,cDkDNzDWmf
993,42085 Joseph Dale Suite 702,Idabel,OK,74745,-94.85876,33.982116,mHaVBawyXA
994,020 Adam Walk,El Reno,OK,73036,-98.081297,35.538731,MTUXnhlIYG
995,7056 Rodriguez Walks Apt. 663,Guymon,OK,73942,-101.536665,36.786951,DbHYHywxLF
996,82594 Elizabeth Rapid Suite 235,Oklahoma City,OK,73107,-97.630004,35.540589,updjPWKqGq
997,0721 Erica Walks,Blackwell,OK,74631,-97.383647,36.822515,dTwWDXrWql
998,8697 Harrison Expressway Apt. 620,Oklahoma City,OK,73134,-97.573706,35.613594,buAToVtaoC
999,96655 Lowery Corner Suite 948,Stillwater,OK,74074,-97.132058,36.165852,uixMjzVldb
1000,7385 Harris Ville,Glen Carbon,IL,62034,-90.086561,38.849168,LeoCVuzgIb
1001,6731 Gomez Springs Apt. 192,Decatur,IL,62526,-89.01845,39.973523,oUROUvZqxh
1002,25651 Jennifer Mountains,Watseka,IL,60970,-87.758709,40.810048,XIxjgcxXGq
1003,0963 Johnson Path,Pontiac,IL,61764,-88.767673,40.985596,kMBFJMQVKo
1004,143 Taylor Burgs,Marshall,IL,62441,-87.710202,39.484611,JilGtSEbFT
1005,332 Cynthia Plaza Suite 773,Batavia,IL,60510,-88.363412,41.911828,nJbxZOKBPY
1006,919 Lee Tunnel Apt. 641,Paris,IL,61944,-87.728288,39.628673,dRLqSvyPaE
1007,53069 Haney Court Suite 256,Dekalb,IL,60115,-88.72958,41.93951,fOhEcqSgfA
1008,734 Ann Lakes,Hodgkins,IL,60525,-87.938228,41.860871,QERydlqFwb
1009,0547 Stewart Throughway Apt. 723,Salem,IL,62881,-89.035281,38.669459,uXPyrVkVGF
1010,76713 Michael Streets,Normal,IL,61761,-88.944437,40.537935,IMBDkzOjSV
1011,19950 Kyle Vista Apt. 871,Rolling Meadows,IL,60008,-88.029718,42.159555,umJLOtXeOg
1012,12507 Alex Club,Marion,IL,62959,-89.061882,37.737489,sRvCiVORKk
1013,313 Dorothy Stravenue,Mattoon,IL,61938,-88.386687,39.542384,eVBVkhvJYw
1014,00235 Walter Ramp Apt. 180,Round Lake Beach,IL,60073,-88.129581,42.440999,tgJEgFbDqD
1015,5037 Courtney Plaza,Niles,IL,60714,-87.8615,42.02704,xQjEOnwmnm
1016,6401 Guzman Trace,New Lenox,IL,60451,-88.064812,41.536243,xbNnJHkZGT
1017,14121 Wang Haven,Palatine,IL,60074,-88.0355,42.183886,MbTAroWNPI
1018,394 Allen Hills Apt. 523,Taylorville,IL,62568,-89.369551,39.680531,NEnKIpAejJ
1019,1494 Stewart Green,Round Lake Beach,IL,60073,-88.184288,42.439209,TGLjIjufqm
1020,9316 Wise Drive,Dekalb,IL,60115,-88.755794,41.942135,vPoXXbHRUA
1021,954 Williams Viaduct,Savoy,IL,61874,-88.359585,40.070518,MYWnfUiZfn
1022,14505 Jordan Landing,Shorewood,IL,60431,-88.277545,41.516317,yOUwlxswAf
1023,955 Joseph Landing,Crestwood,IL,60445,-87.724259,41.678264,UXTjzCbmWX
1024,86956 Jamie Corner,Carlyle,IL,62231,-89.480624,38.670331,HjzryxaqcP
1025,1376 Jessica Keys Suite 375,Salem,IL,62881,-89.058373,38.623034,PbLKMgHafn
1026,6874 Jennifer Union,Geneseo,IL,61254,-90.28723,41.478361,TQMWsqukxQ
1027,9291 Julia Hills Apt. 690,Belleville,IL,62221,-89.981869,38.569982,GPsnoTYRZO
1028,642 Harris Forges,Centralia,IL,62801,-89.244145,38.516392,SkAHPkWrxg
1029,118 Maria Manors Suite 718,Mattoon,IL,61938,-88.339928,39.510459,ZVCwFROfqh
1030,81314 Lorraine Ports Suite 393,Chicago,IL,60639,-87.723016,41.969466,gIMgFJVqaO
1031,87399 Alan Ways Suite 649,Springfield,IL,62704,-89.737068,39.86648,EyMGMShgJe
1032,31862 Kerr Lane Apt. 623,Springfield,IL,62702,-89.661695,39.829034,ByWjyTJRwy
1033,530 Patricia Coves,Silvis,IL,61282,-90.448527,41.548886,KaJBluVXUl
1034,7819 Morales Spring,Galena,IL,61036,-90.475061,42.463908,ohRyfBGoCE
1035,05981 Hart Burgs Suite 082,Jacksonville,IL,62650,-90.326577,39.725125,hhqaKIceqb
1036,386 Walsh Ford,Woodstock,IL,60098,-88.434693,42.316836,GrssfExKyL
1037,81212 Evans Squares,Godfrey,IL,62035,-90.228858,39.033725,lIsEXRAaKL
1038,82758 Sarah Shore,Bridgeview,IL,60455,-87.879925,41.721593,rrldEgKqwC
1039,077 Shannon Creek,Mattoon,IL,61938,-88.383069,39.585015,OFWMxyEDNG
1040,7021 Sims Oval Suite 729,Watseka,IL,60970,-87.728138,40.885863,CfNvgjdYbQ
1041,327 Robinson Mill,Skokie,IL,60076,-87.76068,42.087863,zcwoAFTHNk
1042,5189 Paul Knolls Suite 659,Springfield,IL,62702,-89.656347,39.888906,wMjZskBGVR
1043,1320 Anthony Lights Apt. 193,Addison,IL,60101,-88.052275,41.916085,issDEmDYpP
1044,18262 Hernandez Oval Apt. 116,Aledo,IL,61231,-90.740494,41.217616,WvIksNQORL
1045,5400 Jill Coves Apt. 492,Marshall,IL,62441,-87.762243,39.420391,xJXhJiWUjn
1046,85401 Wesley Island,Chicago,IL,60639,-87.744455,41.914154,OsRCVghfHJ
1047,8052 Freeman Knolls,Champaign,IL,61822,-88.31695,40.133607,rYNKcCEwkf
1048,9350 Lewis Shore,Chicago,IL,60657,-87.672155,41.933928,yELAWCXQcJ
1049,0362 Martin Walks Apt. 832,Rockford,IL,61108,-89.089661,42.335816,zfAhMkkdOo
1050,635 Stephen Ville Suite 557,Washington,IL,61571,-89.546058,40.775087,lMAIvhYjUQ
1051,00225 Christopher Cove Apt. 006,Carlyle,IL,62231,-89.479592,38.68934,CVgjAVNbNe
1052,185 Amanda Motorway,Springfield,IL,62703,-89.611119,39.775185,atCCCvSMxS
1053,31437 Mata Trafficway Apt. 826,Macomb,IL,61455,-90.650008,40.526074,xAaPNKsVqp
1054,0209 Silva Meadow Suite 583,Homewood,IL,60430,-87.687968,41.55262,FrddhLhiuy
1055,4815 Erin Parkways Suite 670,Morton,IL,61550,-89.535489,40.654582,kmxVlrrUxF
1056,59360 Smith Shore Suite 258,Lawrenceville,IL,62439,-87.777333,38.750721,vQELkiGEEM
1057,007 Jackson Prairie Suite 006,Chicago,IL,60628,-87.664268,41.775727,ZRsUledGCe
1058,696 Robinson Coves,Murphysboro,IL,62966,-89.345524,37.828799,YjHkuyJyRx
1059,86810 Banks Orchard,Peoria,IL,61615,-89.632035,40.870392,MVeKrkjNGk
1060,49259 Gregory Green Suite 599,Lawrenceville,IL,62439,-87.786655,38.746421,gDuivkkigg
1061,779 Smith Mews Apt. 753,Cicero,IL,60804,-87.783783,41.852767,qGPcXcZuOK
1062,8561 Timothy Ramp Apt. 887,Darien,IL,60561,-88.042977,41.78793,ykyBCpOGKi
1063,66458 Ryan Gateway,Belleville,IL,62221,-89.936801,38.512216,fZNGWQtOHw
1064,39406 Robert Mountains Suite 843,Northlake,IL,60164,-87.966593,41.920258,WDYsJizwxp
1065,480 Taylor Turnpike Suite 414,Carlyle,IL,62231,-89.419674,38.615717,QAztJRXFZF
1066,3454 Madison Islands Suite 095,Waukegan,IL,60085,-87.925224,42.313426,vLuzrLRiAM
1067,21747 Randolph Villages,Champaign,IL,61822,-88.385095,40.134885,SxlskObZrv
1068,3942 Alvarez Meadows,Silvis,IL,61282,-90.441895,41.589242,afBZndhWLs
1069,120 Brian Pass,Romeoville,IL,60446,-88.142096,41.672241,fXEPEMqygR
1070,35465 Jacobs Track,Decatur,IL,62521,-88.921159,39.832286,Kzfafyhkif
1071,14877 Roberts Avenue,Bourbonnais,IL,60914,-87.842389,41.244073,pUkKtYCKJc
1072,4525 Mcclain Village,Johnsburg,IL,60050,-88.343984,42.483804,uWNqLljYvE
1073,078 Powers Avenue Suite 528,Normal,IL,61761,-88.972489,40.523785,ENNSZKYlxC
1074,70875 Mary Squares Suite 427,Kankakee,IL,60901,-87.954079,41.149743,EFBmqiHZrT
1075,87076 Adrian Points,Godfrey,IL,62035,-90.289352,39.062164,zEufdWBaUo
1076,28597 Tracy Forges Suite 726,Collinsville,IL,62234,-90.019845,38.754463,vCxfCHHFka
1077,58571 Pamela Track Suite 220,Fairfield,IL,62837,-88.412725,38.481911,hpAbzSIUyn
1078,9316 Taylor Turnpike Apt. 204,Normal,IL,61761,-88.981794,40.54462,nCCvcpMuSb
1079,293 Smith Garden Suite 697,Montgomery,IL,60538,-88.440297,41.762359,bkVPIVRfbG
1080,195 David Gateway Apt. 003,Normal,IL,61761,-88.979981,40.554465,FLqTGxOanR
1081,8577 Garcia Ranch,Murphysboro,IL,62966,-89.368222,37.84735,DEtywTheJR
1082,87744 Scott Mall Suite 709,Chicago,IL,60620,-87.720802,41.87557,noyLXwqdIr
1083,3779 Holmes Lights Suite 958,Robinson,IL,62454,-87.771854,39.04152,EpcQwZGcwk
1084,97758 Amy Ways,Decatur,IL,62521,-88.945477,39.876994,LCaVWZsNBl
1085,7068 Diane Glens,Morton,IL,61550,-89.553791,40.610492,gxNPulqXJB
1086,56492 Erickson Falls Apt. 945,Galesburg,IL,61401,-90.425566,41.013855,slKgvsAuHT
1087,8174 John Valley,Joliet,IL,60435,-88.159651,41.516208,ZbAWXXwkBS
1088,271 Brandt Glen Apt. 601,Sparta,IL,62286,-89.735235,38.115096,wyfibhPhGR
1089,4807 Samantha Ridge Suite 132,Galena,IL,61036,-90.442454,42.440669,VtxQkvmGBs
1090,4161 Angela Locks Apt. 630,Olympia Fields,IL,60461,-87.779229,41.581887,CAObKEtixy
1091,366 Palmer Inlet,Princeton,IL,61356,-89.528485,41.414899,QkFqRHoHLu
1092,9007 Ray Plaza,Princeton,IL,61356,-89.589647,41.440538,PTMfGIVMZQ
1093,7931 Keith Summit Suite 910,Decatur,IL,62526,-89.020713,39.930926,XkoWVLVTir
1094,348 Powers Flat Apt. 573,Granite City,IL,62040,-90.130337,38.751317,ijnlyaMuwN
1095,91675 Robert Mount Apt. 478,Batavia,IL,60510,-88.346066,41.948245,fewioueCWn
1096,4088 Evelyn Estates Suite 999,Robinson,IL,62454,-87.751568,39.033296,jbJXgijRly
1097,104 Sellers Well,Country Club Hills,IL,60478,-87.723618,41.646114,iGYxMFYQfs
1098,3408 Cynthia Trail,Palatine,IL,60074,-88.087773,42.114785,VTFepEnNFy
1099,646 Ortiz Crescent,Peoria,IL,61615,-89.61901,40.883891,OFcLMdojWs
1100,675 Rose Harbors Apt. 780,Canton,MI,48187,-83.484219,42.319347,VpTWFTiMAv
1101,490 Washington Loaf,Comstock Park,MI,49321,-85.76426,43.051476,JKDZPxtbDS
1102,84519 Johnathan Rapid Suite 042,Jackson,MI,49202,-84.473712,42.285971,amVjzuBuun
1103,53574 Hailey Islands,Dearborn,MI,48126,-83.215612,42.348083,PVfMswknik
1104,6979 Dylan Road Apt. 797,Cheboygan,MI,49721,-84.527089,45.619687,uwZwtEfQKj
1105,74649 Sabrina Course,Jackson,MI,49202,-84.438628,42.229347,vlpimmjPtF
1106,974 Johnson Overpass,South Haven,MI,49090,-86.287683,42.489821,IMdgPFbJfi
1107,6298 Courtney Station Suite 369,Caro,MI,48723,-83.440386,43.534617,obcHfkXydU
1108,86316 Karen Ford,Commerce,MI,48390,-83.465167,42.657959,fAtLXCRVCs
1109,06439 Fernandez Loop,Holland,MI,49424,-86.139355,42.881634,KrzzuSEvIc
1110,25142 Samantha Fields Apt. 124,West Branch,MI,48661,-84.286241,44.366218,QOTjorjSSP
1111,317 Prince Groves,Hastings,MI,49058,-85.312778,42.665423,LjCpAbikKG
1112,501 Jeffrey Crest Suite 878,Greenville,MI,48838,-85.37798,43.278676,XeePObraPX
1113,872 Debra Island,Houghton,MI,49931,-88.641215,47.17106,OzkHUKsQzW
1114,6238 Rivas Circle,Sault Sainte Marie,MI,49783,-84.442335,46.528861,PeFadlRncl
1115,7071 Stacy Shore Apt. 295,Cadillac,MI,49601,-85.422765,44.338572,DSYZFKEHWw
1116,322 James Drive,Warren,MI,48093,-83.066344,42.578199,EoHvkvHpWu
1117,640 Kaitlin Ville Apt. 674,Iron Mountain,MI,49801,-88.024334,45.869599,ASbxGCFdSP
1118,4588 Murphy Inlet Suite 829,Traverse City,MI,49684,-85.635924,44.723557,smiDDvlwde
1119,919 Samantha Square,Ypsilanti,MI,48197,-83.743919,42.211386,UCDJTpbbOl
1120,95219 Danny Mount,Plainwell,MI,49080,-85.724588,42.481503,FvfMCMXQiq
1121,456 Deborah Point,Troy,MI,48084,-83.232637,42.528862,JFDHcbrdzi
1122,120 Bryan Burgs,Grand Blanc,MI,48439,-83.645161,42.9402,IFNzWtREzN
1123,58676 Gonzalez Stream,Clinton Township,MI,48038,-82.946619,42.644227,zkvKabVxtD
1124,2158 Jonathan Loaf Apt. 802,Iron Mountain,MI,49801,-88.017065,45.832226,QmLcITQHtE
1125,629 Green Throughway Apt. 862,Troy,MI,48084,-83.225208,42.533627,HzQuGtvQXS
1126,309 Shah Dale Suite 263,Alpena,MI,49707,-83.522882,45.119506,DBxloSwqRy
1127,902 William Lock Apt. 029,Livonia,MI,48150,-83.3318,42.426041,EfnEbgWXAU
1128,7748 Christine Heights Apt. 527,Grandville,MI,49418,-85.82469,42.944774,NegFxOHoCB
1129,37605 Jason Groves,Fowlerville,MI,48836,-84.110885,42.64475,glFaVUPyGS
1130,25546 Elizabeth Ferry,Lansing,MI,48917,-84.732251,42.732851,jSqGGtIszZ
1131,72100 Holly Mills,Mount Pleasant,MI,48858,-84.829949,43.642191,waKypVWrQN
1132,06092 Jennifer Prairie Apt. 952,West Branch,MI,48661,-84.285808,44.361637,eFVUbewvRD
1133,86214 Meyers Roads Apt. 771,Saginaw,MI,48638,-84.044471,43.483614,FmEdJrUfXO
1134,752 Davis Locks,Rochester Hills,MI,48309,-83.211199,42.661947,xjpTusgThf
1135,010 Barbara Key,Saint Johns,MI,48879,-84.519502,43.059334,nRwstgWPfu
1136,941 Curtis Mission Apt. 906,Houghton Lake,MI,48629,-84.74958,44.327193,FlIOJXZJzS
1137,4266 Kristen Rest Suite 894,Novi,MI,48375,-83.577438,42.551687,sRROfwPSXg
1138,4634 Maldonado Springs Apt. 770,Canton,MI,48188,-83.536043,42.310469,ETuHqzItmW
1139,2013 Garcia Junction,South Haven,MI,49090,-86.219779,42.42904,wQeonsuzZL
1140,567 Chandler Islands,Bad Axe,MI,48413,-83.068021,43.888836,wSlNdoGSNR
1141,440 Bruce Roads,Three Rivers,MI,49093,-85.714815,41.97372,yyhidNWShe
1142,84222 Hall Well Apt. 528,Owosso,MI,48867,-84.172933,43.053583,SfoTSwnoPO
1143,428 Michael Forges,White Lake,MI,48386,-83.571695,42.73111,yvraJLtnLp
1144,77646 Castillo Unions,Lansing,MI,48912,-84.53415,42.864426,EahvWPUrlZ
1145,83417 Erica Inlet Suite 021,Traverse City,MI,49684,-85.616285,44.743938,YwKQyRAqCF
1146,27697 Daniel Lock,Plainwell,MI,49080,-85.748882,42.473028,rWLMGeHuUC
1147,674 Thomas Groves Suite 552,Burton,MI,48509,-83.674404,43.073381,sLmoRKWZRX
1148,098 Samantha Keys Suite 533,Cadillac,MI,49601,-85.452264,44.385846,EZwdyuRJJo
1149,82393 Meredith Passage Apt. 298,Iron Mountain,MI,49801,-88.049182,45.868094,cissOufyKc
1150,22796 Michael Ways Suite 701,Livonia,MI,48152,-83.379203,42.459587,yaSnUaugsP
1151,1413 Brown Way Apt. 410,Clinton Township,MI,48038,-82.980657,42.653636,RMLXaenPPM
1152,99861 Griffin Brook Suite 312,Flint,MI,48532,-83.851683,43.02419,YXKgMVOdHJ
1153,843 Michelle Hill,Petoskey,MI,49770,-85.087231,45.454006,rjxDOwuTpF
1154,837 Brandy Trail Suite 058,Jackson,MI,49202,-84.411731,42.258405,LkxtMMapsT
1155,4635 Mindy Common Apt. 174,Fowlerville,MI,48836,-84.12072,42.651772,EeqyswVcHI
1156,49591 Alexis Falls Apt. 867,Cheboygan,MI,49721,-84.556519,45.675902,baVRexmKzz
1157,62005 April Haven Apt. 131,Taylor,MI,48180,-83.363787,42.338765,UVraerZoAA
1158,0074 Gonzalez Estates,Commerce,MI,48390,-83.414326,42.661735,NDkhybrMtz
1159,2662 Jasmine Plains Apt. 682,Cheboygan,MI,49721,-84.537815,45.688687,wrVvHHaYzU
1160,148 Whitney Parkway,Grand Haven,MI,49417,-86.22039,43.061538,XeFbbkWfOh
1161,20393 Sherman Ridges Suite 086,Coldwater,MI,49036,-85.038925,41.915346,SGeirBWwXg
1162,472 Joseph Oval Suite 629,Cheboygan,MI,49721,-84.534373,45.65426,ONtAdcTGKJ
1163,8314 Anderson Plaza,Fowlerville,MI,48836,-84.188619,42.618421,wxoXfxmLqr
1164,0247 Wendy Course,Warren,MI,48093,-83.06358,42.57987,UAfJjTopAN
1165,03811 Kennedy Roads,Houghton Lake,MI,48629,-84.789506,44.362783,NKgHtIeJOx
1166,223 Tiffany Spur,Burton,MI,48509,-83.651818,43.054411,wIIvfGBbAG
1167,83315 Chang Shoal Suite 723,Sault Sainte Marie,MI,49783,-84.471103,46.530456,hFREIKiSsS
1168,53277 Anthony Harbor,Livonia,MI,48150,-83.318348,42.473862,aWNwPLqUEB
1169,785 Escobar Springs Suite 237,Livonia,MI,48152,-83.372987,42.470054,IXIwAdOFjF
1170,6906 Rebecca Garden,Sault Sainte Marie,MI,49783,-84.430331,46.56719,DieQXADspN
1171,55019 Adam Valley,Midland,MI,48642,-84.2687,43.780988,TUAzeFrTto
1172,9710 Emily Manors,Canton,MI,48188,-83.556388,42.349833,ZdODslFecv
1173,614 Krystal Light Suite 044,Fowlerville,MI,48836,-84.166772,42.688251,NvEvLkhBdY
1174,1057 Judith Turnpike Suite 734,Lansing,MI,48917,-84.770117,42.742988,MMpGvpzjwS
1175,96648 Joshua Orchard Suite 051,Canton,MI,48188,-83.524577,42.353866,jVDWMnfHNr
1176,21871 Williamson Path,Saginaw,MI,48638,-84.073972,43.478605,riMJiZgWXx
1177,329 Monique Lock,Three Rivers,MI,49093,-85.743139,41.934476,gpqOIUOiXz
1178,00664 Davis Track Apt. 143,Wyoming,MI,49548,-85.768286,42.969752,rXkwFgoaSA
1179,50207 Reyes Pines,Muskegon,MI,49441,-86.321038,43.212641,vAoyYxesTa
1180,03815 Sheri Groves Suite 194,Burton,MI,48509,-83.68765,43.089505,gGrfDbrSUV
1181,730 Karen Parkway,Lansing,MI,48912,-84.56024,42.814434,czyVSNOqtx
1182,58400 Flores Plains,Ypsilanti,MI,48197,-83.755982,42.24605,PpFmKPWgPm
1183,96098 Monica Well,Clio,MI,48420,-83.846087,43.254912,iVVkKeroqL
1184,7582 Watkins Port Apt. 511,Marquette,MI,49855,-87.569216,46.589261,avVmdGXspd
1185,1658 Jerry Turnpike,Houghton,MI,49931,-88.63248,47.170806,unGKdGMBic
1186,301 Morgan Cove,Kalamazoo,MI,49048,-85.554946,42.318903,UMetQxylPG
1187,6358 James Field,Saint Johns,MI,48879,-84.556355,43.045126,gnJofVJAdG
1188,7721 Smith Falls Suite 806,Muskegon,MI,49444,-86.262805,43.241895,sXkNKceDkN
1189,73132 Bell Mountains,Sterling Heights,MI,48314,-83.173316,42.674118,cnwvzhIEkg
1190,567 Matthew Mews,Ironwood,MI,49938,-90.168265,46.521568,gllyFZASsb
1191,56412 Coleman Brooks,Ironwood,MI,49938,-90.153735,46.532721,jUXpjuSMTp
1192,21739 Johnny Locks,Petoskey,MI,49770,-85.014982,45.460804,KElEghxznY
1193,1350 Rachael Points,Woodhaven,MI,48183,-83.245314,42.142701,Qdfbyciqdl
1194,096 Duran View Apt. 499,Fremont,MI,49412,-86.084765,43.569764,ALeYYnzKXK
1195,886 Nathaniel Mountains,Iron Mountain,MI,49801,-88.017049,45.838564,vRrIYRIfXA
1196,5935 Candice Villages Apt. 591,Canton,MI,48187,-83.44358,42.364061,lAHqxXFbCg
1197,23978 Miles Fields Suite 788,Roseville,MI,48066,-82.988888,42.587202,hzlezWLprR
1198,8685 Bryan Skyway,Tawas City,MI,48763,-83.55035,44.330259,KNlvBDvOjR
1199,94788 Bird Crescent,Sterling Heights,MI,48312,-83.021384,42.573646,CRNDLHNuWb
1200,98924 Aaron Crossing Suite 202,Sumter,SC,29150,-80.411669,34.036118,efKILoWlqY
1201,44279 Brian Streets Apt. 713,Summerville,SC,29483,-80.221172,33.063552,vfgMHGtpWP
1202,344 White Villages Apt. 037,Hartsville,SC,29550,-80.122714,34.463665,OdMOWfpBsF
1203,2986 Zachary Falls,Columbia,SC,29170,-81.277493,33.987591,ivsYMNEnOm
1204,39805 Mosley Throughway Suite 366,Myrtle Beach,SC,29577,-79.07433,33.714664,OugbkodVeC
1205,51538 Cannon Light,Moncks Corner,SC,29461,-80.016904,33.250787,QRcxTcYKQj
1206,728 Robert Burg Apt. 135,Sumter,SC,29150,-80.448748,33.932955,kJbzkIpHuI
1207,8619 Ortiz Orchard Apt. 889,Rock Hill,SC,29730,-81.082183,35.087625,kNzRTlhyLt
1208,93044 King Greens Apt. 753,Dillon,SC,29536,-79.42364,34.437734,wiMMcLJKlt
1209,4557 Howell Drive Suite 547,Mount Pleasant,SC,29466,-79.844945,32.916499,wjsGAEkrvH
1210,00693 Wilson Plain,Ladson,SC,29456,-80.159991,33.080184,uFCSDxzxCF
1211,126 Williams Extensions,Greenville,SC,29611,-82.554374,34.876979,sbGEOjPlXH
1212,373 Frank Bridge,Lexington,SC,29072,-81.247861,34.025109,LRHpDmnwHf
1213,7076 Rebecca Crossing Suite 603,Rock Hill,SC,29730,-81.044681,34.958341,ItQltAzvBS
1214,00837 Michael Terrace,Hardeeville,SC,29927,-81.035072,32.311086,hGPoMZEwZz
1215,06999 Jaime Plain,Lexington,SC,29073,-81.240221,33.939428,KkdoDuMGnA
1216,479 William Island Suite 293,Myrtle Beach,SC,29572,-78.884218,33.860021,ESYIwTWPMC
1217,4856 Daniel Flat Apt. 814,Lancaster,SC,29720,-80.870646,34.724864,AxaIGQJQgK
1218,81722 Garcia Parkway Suite 763,Greenville,SC,29611,-82.521098,34.989652,XcOlgeUPXc
1219,224 Levy Passage,Beaufort,SC,29906,-80.780078,32.459155,tVgHvHHWPi
1220,713 Sheri Plains,Florence,SC,29501,-79.852152,34.233933,lgBELAiniL
1221,077 Lee Trail Suite 239,Simpsonville,SC,29681,-82.350597,34.817687,LPWvxIslcJ
1222,01496 Nathaniel Passage Apt. 830,North Augusta,SC,29860,-81.975806,33.687343,JmvLdzwKOD
1223,89041 William Center Suite 108,Union,SC,29379,-81.618698,34.73654,lZMyqDewox
1224,03809 Tony Way,Anderson,SC,29624,-82.720645,34.520411,CFiEWFbpBs
1225,21135 Tyler Inlet,Central,SC,29630,-82.842729,34.763433,meipbGwCWd
1226,19432 Megan Crossroad,Hilton Head Island,SC,29926,-80.769142,32.287147,oMrTnmNBFe
1227,51605 Benjamin Cliff Suite 313,Rock Hill,SC,29730,-81.032656,35.032231,cWgOlaXXuv
1228,90434 Chambers Summit Apt. 188,Myrtle Beach,SC,29577,-78.945193,33.75888,JKSklDuJfk
1229,738 Reese Tunnel Apt. 110,Aiken,SC,29803,-81.727529,33.580464,XhehEOZWki
1230,874 Oconnor Harbors Apt. 234,Greer,SC,29650,-82.273882,34.933665,uRbMyljbGM
1231,364 May Circle Apt. 196,Tega Cay,SC,29708,-81.058421,35.013102,SyBiGulGQV
1232,29442 Patrick Station Suite 632,North Myrtle Beach,SC,29582,-78.781336,33.81025,mjChrypqZf
1233,2876 Anthony Summit Apt. 005,Charleston,SC,29414,-80.144891,32.81324,svTEwpLExQ
1234,6711 Ashley Shoal,Florence,SC,29501,-79.865597,34.217506,xKXiRojEcc
1235,14633 Williams Rapid Suite 315,Columbia,SC,29203,-81.064608,34.147439,tDyIUtFNWS
1236,4358 Lyons Ways Suite 326,Goose Creek,SC,29445,-80.080815,33.011992,JfiXQNAQCB
1237,26793 Gregory View Apt. 572,Greenville,SC,29607,-82.327931,34.857681,iUObAxDdCf
1238,06257 Lopez Ramp,Laurens,SC,29360,-82.089768,34.511692,LXTHAxeePu
1239,578 Mary Hill,Summerville,SC,29483,-80.264313,33.038022,oJepykAdSw
1240,26161 Diane Mountains,North Charleston,SC,29406,-80.047571,32.936776,KBrHqvchlr
1241,0735 Jerry Inlet,Aiken,SC,29801,-81.843151,33.63242,DQCFKvmbLs
1242,17754 Andrew Lodge,Myrtle Beach,SC,29577,-79.06805,33.774118,KoMiCeBehU
1243,6205 Davis Manor Suite 666,Indian Land,SC,29707,-80.838484,35.038883,IdZBaJlugM
1244,9079 Hurst Trail,Newberry,SC,29108,-81.617895,34.336734,kpKHGJDWjZ
1245,7654 Aguilar Gardens Suite 264,Tega Cay,SC,29708,-81.028298,35.018984,OPtTcxXIrn
1246,993 Jones Gateway,Rock Hill,SC,29730,-81.026689,35.042707,FqXPszpNSU
1247,7079 Walters Garden Suite 699,Ladson,SC,29456,-80.140646,33.081836,UDcouqCGfO
1248,05405 Baldwin Rue Suite 590,Columbia,SC,29203,-81.038491,34.142693,ylwMmxKiyP
1249,274 Stephens Views,Simpsonville,SC,29680,-82.354536,34.747848,QKcMowBfxz
1250,803 Johnson Ford Apt. 167,Laurens,SC,29360,-82.056802,34.576789,KvSdlNbmwM
1251,2630 Gates Wells Apt. 322,Easley,SC,29640,-82.569853,34.82711,vNlUzONpSc
1252,5071 Kayla Crossroad Suite 989,Travelers Rest,SC,29690,-82.451409,35.010864,EtjvKKhZWS
1253,101 Matthew Valleys,Union,SC,29379,-81.641441,34.743022,WTptEqhWtv
1254,870 Murray Road Apt. 450,Rock Hill,SC,29730,-81.059495,34.918058,vnnTdeYCel
1255,2308 Miller Harbors Suite 910,Myrtle Beach,SC,29577,-78.958298,33.74325,bpUXvKcjwc
1256,6331 Sanchez Dale Suite 242,Murrells Inlet,SC,29576,-79.049066,33.68295,xBcVeCKcPP
1257,776 Smith Point,Union,SC,29379,-81.618737,34.766995,UNSPfPGWoN
1258,6163 Justin Way,Myrtle Beach,SC,29577,-79.080234,33.717628,IctNpJipUq
1259,1825 Price Square,Rock Hill,SC,29730,-81.061952,35.085216,zaIBpYvtYP
1260,68262 Karen Knoll,West Columbia,SC,29169,-81.16674,34.01875,RPsLhJPOCz
1261,03973 Watts Meadow,Myrtle Beach,SC,29577,-78.9338,33.736758,jqWPNCYNHq
1262,02613 Miller Oval Suite 381,Newberry,SC,29108,-81.682562,34.379145,tRnRCjfiXb
1263,75712 Andrew Springs,Simpsonville,SC,29680,-82.333135,34.780635,SnVvUymEVh
1264,584 Herrera Inlet Apt. 409,Rock Hill,SC,29730,-81.016994,34.913692,sOMuMCyXCx
1265,3392 Robert Shore Apt. 632,North Charleston,SC,29406,-80.042526,32.961187,bhxTESJjrp
1266,25539 Andrea Mills,Surfside Beach,SC,29575,-79.064321,33.644817,IExtwhkcqZ
1267,72374 Lewis Spring Apt. 024,Mullins,SC,29574,-79.34916,34.241139,EtvKcHZegH
1268,319 Mary Union,Greenville,SC,29607,-82.368501,34.846338,XHOCPFwfPH
1269,519 Rivera Falls Apt. 441,Barnwell,SC,29812,-81.472913,33.218796,ljQnfBxxqx
1270,62034 Kyle Burgs Suite 710,Moncks Corner,SC,29461,-80.064721,33.245163,JvvNBHIUTb
1271,128 Miller Forks Suite 357,Lexington,SC,29073,-81.221587,33.944046,VUcRbFAjKl
1272,86907 Morgan Ville,Greenville,SC,29607,-82.31691,34.881212,jvhauqTExx
1273,6630 Duran Manors,Conway,SC,29526,-79.152194,33.910229,MqJJRGLDPR
1274,51871 Carter Heights,North Augusta,SC,29860,-81.929827,33.652157,PyjfjyApAm
1275,1838 Goodwin Valley,York,SC,29745,-81.261615,35.040429,NDrDbieoBg
1276,34888 Ruiz Well,Aiken,SC,29803,-81.76891,33.520421,vFwDMpLayw
1277,47326 Dylan Summit,Lexington,SC,29073,-81.226914,33.911117,KaWQevjJyD
